,站號,站名,站種,海拔高度(m),經度,緯度,城市,地址,資料起始日期,撤站日期,備註,原站號,新站號
0,466850,五分山雷達站,局屬有人站,756.0,121.781205,25.071182,新北市,瑞芳區靜安路四段1巷1號,1988-07-01,,本站只有雷達觀測資料。,,
1,466881,新北,局屬有人站,24.06,121.52,24.9593,新北市,新店區莒光路29號,2023-01-01,,為臺北氣象站板橋站區(站碼466880)遷移之新站，於2023/01/03上午11時取代舊站開始提供觀測資料。,466880,
2,466900,淡水,局屬有人站,19.0,121.448906,25.164889,新北市,淡水區中正東路42巷6號,1942-10-01,,,,
3,466910,鞍部,局屬有人站,837.6,121.529731,25.182586,臺北市,北投區陽明山竹子湖路111號,1943-01-01,,,,
4,466920,臺北,局屬有人站,5.3,121.514853,25.037658,臺北市,中正區公園路64號,1896-08-11,,1992/02至1997/08因本局改建，觀測地點移至臺北師院(466921)。2014至2015氣候年報之氣壓計海面上高度應為30.3m(2014/10/25搬遷，6.6m->30.3m)。,,
5,466930,竹子湖,局屬有人站,607.1,121.544547,25.162078,臺北市,北投區陽明山竹子湖路2號,1943-01-01,,,,
6,466940,基隆,局屬有人站,26.7,121.740475,25.133314,基隆市,仁愛區港西街6號6樓(海港大樓6樓),1946-10-01,,,,
7,466950,彭佳嶼,局屬有人站,101.7,122.079744,25.627975,基隆市,中正區彭佳嶼,1936-05-01,,,,
8,466990,花蓮,局屬有人站,16.1,121.613275,23.975128,花蓮縣,花蓮市花崗街24號,1910-11-01,,,,
9,467050,新屋,局屬有人站,20.6,121.047486,25.006744,桃園市,新屋區東興路二段946號,2013-07-01,,座標及高度於2013/10/09更正。2020/01/01至2020/02/15因施工部分觀測資料缺值。,,
10,467080,宜蘭,局屬有人站,7.2,121.756528,24.763975,宜蘭縣,宜蘭市力行路150號,1935-12-06,,,,
11,467110,金門,局屬有人站,47.88,118.289281,24.407306,金門縣,金城鎮金水里西海路一段250號,2004-01-16,,,,
12,467270,田中,局屬有人站,48.6,120.581286,23.873803,彰化縣,田中鎮中潭里4鄰高鐵三路1段167號,2020-04-09,,,,
13,467300,東吉島,局屬有人站,43.0,119.667467,23.25695,澎湖縣,望安鄉東吉村156號,1963-01-01,,,,
14,467350,澎湖,局屬有人站,10.7,119.563094,23.565503,澎湖縣,馬公市新興路2號,1896-11-21,,,,
15,467410,臺南,局屬有人站,40.8,120.204772,22.993239,臺南市,中西區公園路21號,1897-01-01,,1998/05停止觀測，2002/01恢復觀測。2002年至2006年氣候年報之風速儀地上高度應為53.7m。,,
16,467420,永康,局屬有人站,8.1,120.2367,23.038386,臺南市,永康區鹽行里正南五街520巷88號,1947-06-01,,,,
17,467441,高雄,局屬有人站,11.8,120.3125,22.7304,高雄市,楠梓區德民路28號,2022-01-24,,,467440,
18,467480,嘉義,局屬有人站,26.9,120.432906,23.495925,嘉義市,西區北新里海口寮路56號,1968-09-01,,,,
19,467490,臺中,局屬有人站,84.04,120.684075,24.145736,臺中市,北區精武路295號,1897-01-01,,2000年至2006年氣候年報之海拔高度誤植為34m。,,
20,467530,阿里山,局屬有人站,2413.4,120.813242,23.508208,嘉義縣,阿里山鄉中正村4鄰東阿里山73-1號,1933-04-01,,,,
21,467540,大武,局屬有人站,8.1,120.903789,22.355675,臺東縣,大武鄉大武街115號,1940-01-01,,,,
22,467550,玉山,局屬有人站,3844.8,120.959522,23.487614,南投縣,信義鄉玉山北峰1號,1943-10-01,,,,
23,467571,新竹,局屬有人站,26.9,121.014219,24.827853,新竹縣,竹北市北崙里3鄰光明五街60號,1991-07-01,,,,
24,467590,恆春,局屬有人站,22.3,120.746339,22.003897,屏東縣,恆春鎮天文路50號,1896-11-20,,,,
25,467610,成功,局屬有人站,33.5,121.373428,23.097486,臺東縣,成功鎮公民路84號,1940-01-01,,,,
26,467620,蘭嶼,局屬有人站,324.0,121.558339,22.036969,臺東縣,蘭嶼鄉紅頭村2號,1941-11-01,,,,
27,467650,日月潭,局屬有人站,1017.5,120.90805,23.881325,南投縣,魚池鄉水社村中山路270巷14號,1941-11-01,,,,
28,467660,臺東,局屬有人站,9.0,121.154586,22.752211,臺東縣,臺東市大同路106號,1901-01-01,,,,
29,467790,墾丁雷達站,局屬有人站,42.0,120.808028,21.948235,屏東縣,恆春鎮燈塔路51巷33號,2001-11-01,,本站只有雷達觀測資料。,,
30,467990,馬祖,局屬有人站,97.842,119.923419,26.169269,連江縣,南竿鄉四維村6鄰88號,2004-01-01,,,,
31,C0A520,山佳,局屬自動站,48.0,121.402008,24.974944,新北市,樹林區中山路3段5號(山佳國民小學校園內),1987-06-01,,,,
32,C0A530,坪林,局屬自動站,300.0,121.70975,24.938183,新北市,坪林區,1987-06-01,,,,
33,C0A540,四堵,局屬自動站,401.0,121.745736,24.8926,新北市,坪林區碧湖(北宜路旁之碧湖橋道路上行約10分鐘),1987-06-01,,,,
34,C0A550,泰平,局屬自動站,422.0,121.823711,24.971197,新北市,雙溪區泰平里8鄰大平路43號(泰平國小分校附近),1987-06-01,,,,
35,C0A560,福山,局屬自動站,405.0,121.502811,24.776203,新北市,烏來區福山里李茂岸八號(福山國小旁),1987-06-01,,,,
36,C0A570,桶後,局屬自動站,360.0,121.597992,24.848222,新北市,烏來區后桶街49號孝義里5-6k處路旁,1987-06-01,,,,
37,C0A640,石碇,局屬自動站,241.0,121.662917,24.993969,新北市,石碇區湳窟34號附近,2009-12-01,,原(C1A640)站因擴充為氣象站，於2009/12/1升級為(C0A640)站。,C1A640,
38,C0A650,火燒寮,局屬自動站,287.0,121.742892,25.002719,新北市,平溪區東勢里,2009-12-01,,原(C1A650)站因擴充為氣象站，於2009/12/1升級為(C0A650)站。,C1A650,
39,C0A660,瑞芳,局屬自動站,97.0,121.801147,25.113169,新北市,瑞芳區22403龍山里逢甲路360號(義方國民小學校園內),2009-12-01,,原(C1A660)站因擴充為氣象站，於2009/12/1升級為(C0A660)站。,C1A660,
40,C0A770,科教館,局屬自動站,60.0,121.516507,25.096356,臺北市,士林區士商路189號（士林科教館樓頂）,2021-12-13,,,,
41,C0A860,大坪,局屬自動站,362.0,121.632969,25.165914,新北市,萬里區溪底里香員林6-3號,1995-01-01,,,,
42,C0A870,五指山,局屬自動站,685.0,121.608692,25.132153,新北市,汐止區國軍示範公墓旁之復興廣播電台門口外,1995-01-01,,,,
43,C0A880,福隆,局屬自動站,6.0,121.942083,25.017842,新北市,貢寮區東北角海岸國家風景管理處之福隆遊客中心後方,1995-01-01,,,,
44,C0A890,雙溪,局屬自動站,40.0,121.864242,25.036003,新北市,雙溪區雙溪里社區活動中心旁花圃內,1995-01-01,,,,
45,C0A920,富貴角,局屬自動站,196.0,121.565258,25.263783,新北市,石門區山溪里10鄰九芎林13號旁(石門國小山溪分班附近),1995-01-01,,,,
46,C0A931,三和,局屬自動站,216.0,121.595236,25.233153,新北市,金山區三和國小兩湖分校,2014-04-01,,原(C0A930)站因移位，於2014/4/1更變為(C0A931)站。,C0A930,
47,C0A940,金山,局屬自動站,49.0,121.643967,25.223628,新北市,金山區中興段404地號(磺港社區活動中心內),1995-01-01,,,,
48,C0A950,鼻頭角,局屬自動站,60.0,121.923372,25.129036,新北市,瑞芳區鼻頭角燈塔旁,1995-01-01,,,,
49,C0A970,三貂角,局屬自動站,96.0,122.002058,25.007606,新北市,貢寮區三貂角燈塔旁,1996-01-01,,本站於2017/10/23進行儀器汰換，於2017/12/1完成驗收。,,
50,C0A980,社子,局屬自動站,11.0,121.469681,25.109508,臺北市,士林區延平北路九段212號(臺北海洋科技大學內),1997-12-01,,,,
51,C0A9C0,天母,局屬自動站,35.0,121.537169,25.117494,臺北市,士林區天母東路116號(三玉國小內),1997-12-01,,,,
52,C0A9F0,內湖,局屬自動站,35.0,121.57545,25.079422,臺北市,內湖區內湖路一段520號(內湖高工內),1997-12-01,,,,
53,C0AC40,大屯山,局屬自動站,1079.0,121.522408,25.175675,臺北市,北投區湖田段461-6地號(民航局大屯山助航臺),2006-01-01,,,,
54,C0AC60,三峽,局屬自動站,55.0,121.369728,24.939025,新北市,三峽區復興路238號(三峽國中校園內),2009-10-01,,,,
55,C0AC70,信義,局屬自動站,71.0,121.564597,25.037822,臺北市,信義區市府路1號(台北市政府頂樓),2009-10-01,,,,
56,C0AC80,文山,局屬自動站,40.0,121.575728,25.00235,臺北市,文山區木柵路4段159巷14-1號(博嘉國小校園內),2009-12-01,,原(C1AC80)站因擴充為氣象站，於2009/12/1升級為(C0AC80)站。,C1AC80,
57,C0ACA0,新莊,局屬自動站,25.0,121.446756,25.051478,新北市,新莊區中和街193號(榮富國小校園內),2009-12-01,,原(C1ACA0)站因擴充為氣象站，於2009/12/1升級為(C0ACA0)站，站址搬遷至同校行政大樓西側。,C1ACA0,
58,C0AD00,三芝,局屬自動站,86.0,121.501917,25.258131,新北市,三芝區育英路22號(三芝國小內),2009-11-01,,,,
59,C0AD10,八里,局屬自動站,27.0,121.403947,25.150211,新北市,八里區中山路二段338號(八里國小內),2009-11-01,,,,
60,C0AD30,蘆洲,局屬自動站,20.0,121.472331,25.086594,新北市,蘆洲區三民路96號(三民高中內),2009-11-01,,,,
61,C0AD40,土城,局屬自動站,32.0,121.445169,24.973208,新北市,土城區金城路一段90號(新北市政府消防局土城分隊大樓樓頂),2009-11-01,,,,
62,C0AD50,鶯歌,局屬自動站,84.0,121.346294,24.951533,新北市,鶯歌區尖山埔路106號(鶯歌國小內),2009-11-01,,,,
63,C0AG80,中和,局屬自動站,48.0,121.491792,24.991622,新北市,中和區錦和路163號(錦和高中內),2021-10-18,,,,
64,C0AH00,汐止,局屬自動站,38.0,121.658778,25.066881,新北市,汐止區大同路二段394號(汐止國中),2011-09-01,,,,
65,C0AH10,永和,局屬自動站,30.0,121.508111,25.01125,新北市,永和區永平路205號(永平高中校園內),2014-01-01,,,,
66,C0AH30,五分山,局屬自動站,755.0,121.780794,25.07125,新北市,瑞芳區靜安路四段1巷1號,2016-01-01,,,,
67,C0AH40,平等,局屬自動站,426.0,121.577086,25.129142,臺北市,士林區平菁街101號(平等國小),2016-08-01,,,,
68,C0AH50,林口,局屬自動站,275.0,121.38084,25.072181,新北市,林口區仁愛路二段173號(林口高中內),2017-01-10,,,,
69,C0AH70,松山,局屬自動站,34.0,121.55042,25.04871,臺北市,松山區敦化北路1號(臺北市松山運動中心),2017-04-26,,因雨量筒較晚驗收完成，2017/04/26至2017/08/17不提供雨量資料。,,
70,C0AH80,深坑,局屬自動站,68.0,121.628328,25.002703,新北市,深坑區文山路1段35號(深坑消防分隊樓頂),2017-08-02,,,,
71,C0AH90,福山植物園,局屬自動站,660.0,121.58135,24.760717,新北市,烏來區福山植物園內(生活植物區之民俗植物區觀測坪),2018-03-23,,,,
72,C0AI00,五股,局屬自動站,188.0,121.42728,25.07445,新北市,五股區外寮路12號,2018-07-10,,,,
73,C0AI10,屈尺,局屬自動站,76.0,121.54475,24.92184,新北市,新店區屈尺路83號(衛福部北區老人之家),2018-11-20,,,C0A580,
74,C0AI20,白沙灣,局屬自動站,25.0,121.519058,25.283128,新北市,石門區德茂里下員坑33-6號（白沙灣遊客中心樓頂）,2018-11-28,,,,
75,C0AI30,三重,局屬自動站,26.0,121.500629,25.057328,新北市,三重區環河南路100號,2019-08-02,,原(C0A9I1)站因移位，於2019/8/2變更為(C0AI30)站。,C0A9I1,
76,C0AI40,石牌,局屬自動站,35.0,121.513139,25.115597,臺北市,北投區石牌路一段139號(石牌國中自強樓頂樓),2019-09-10,,原(C0A9B0)站因移位，於2019/9/10變更為(C0AI40)站。,C0A9B0,
77,C0AJ20,野柳,局屬自動站,50.0,121.690021,25.20703,新北市,萬里區野柳村151-1號(野柳守望哨雷達塔),2022-03-09,,,,
78,C0AJ30,淡水觀海,局屬自動站,22.0,121.408616,25.184591,新北市,淡水區觀海路251號(淡水第2海巡隊樓頂),2022-03-09,,,,
79,C0AJ40,石門,局屬自動站,154.0,121.601198,25.273672,新北市,石門區草里里草埔尾5號(黃金海岸高爾夫球場),2022-03-09,,,,
80,C0AJ50,水湳洞,局屬自動站,30.0,121.862238,25.123695,新北市,瑞芳區水湳洞段00197-000建號(水湳洞犬區隊),2022-03-09,,,,
81,C0AJ60,六塊厝,局屬自動站,13.0,121.4481,25.24,新北市,淡水區,2022-12-26,,,,
82,C0AJ70,田寮,局屬自動站,21.0,121.4886,25.2698,新北市,三芝區古庄里83之1號,2022-12-26,,,,
83,C0AJ80,板橋,局屬自動站,38.0,121.4489,25.0107,新北市,板橋區僑中一街1號,2023-01-03,,配合板橋有人站遷移，2023/01/03上午11時開始自動觀測。,,
84,C0AJ90,澳底,局屬自動站,23.0,121.9253,25.0552,新北市,貢寮區真理里延平街10號(澳底國小),2023-06-16,,原(C0AJ10)站因移位，於2023/06/16變更為(C0AJ90)站。,C0AJ10,
85,C0B010,七堵,局屬自動站,38.0,121.71713,25.094819,基隆市,七堵區東新街22號(基隆商工樓頂),2018-06-23,,,,
86,C0B020,基隆嶼,局屬自動站,86.0,121.78391,25.19141,基隆市,中正區基隆嶼,2018-10-26,,,,
87,C0B040,大武崙,局屬自動站,15.0,121.706993,25.166676,基隆市,安樂區武聖街144弄50號(大武崙安檢所樓頂),2022-03-09,,,,
88,C0B050,八斗子,局屬自動站,5.0,121.79167,25.144754,基隆市,中正區漁港1街9號(八斗子安檢所樓頂),2022-03-09,,,,
89,C0B060,暖暖,局屬自動站,83.0,121.7403,25.0957,基隆市,暖暖區東碇路15號（暖暖運動公園內）,2023-01-14,,,,
90,C0C460,復興,局屬自動站,482.0,121.352281,24.820208,桃園市,復興區澤仁里中正路248號(介壽國民中學校園內),2007-10-01,,原(C1C460)站因擴充為氣象站，於2007/10/1升級為(C0C460)站。,C1C460,
91,C0C480,桃園,局屬自動站,105.0,121.323172,24.992425,桃園市,桃園區成功路二段144號(桃園高級農工職業學校校園內),2008-01-01,,原(C1C480)站因擴充為氣象站，於2008/1/1升級為(C0C480)站。,C1C480,
92,C0C490,八德,局屬自動站,157.0,121.283289,24.928708,桃園市,八德區興仁里中山路94號(八德國民小學校園內),2011-12-01,,原(C1C490)站因擴充為氣象站，於2011/12/1升級為(C0C490)站。,C1C490,
93,C0C590,觀音,局屬自動站,72.0,121.153317,25.027072,桃園市,觀音區廣福里10-42號(逸福農場),2007-10-01,,,,
94,C0C620,蘆竹,局屬自動站,19.0,121.265767,25.084275,桃園市,蘆竹區坑口里14鄰旁,2011-12-01,,原(C1C620)站因擴充為氣象站，於2011/12/1升級為(C0C620)站。,C1C620,
95,C0C630,大溪,局屬自動站,209.0,121.265547,24.882853,桃園市,大溪區員林路2段450號(員樹林國小校園內),2007-12-01,,,,
96,C0C650,平鎮,局屬自動站,208.0,121.214636,24.897503,桃園市,平鎮區中豐路山頂段375巷45號(山豐國民小學校園內),2007-12-01,,,,
97,C0C660,楊梅,局屬自動站,176.0,121.143047,24.912375,桃園市,楊梅區金華街100號(楊心國小),2013-08-01,,,,
98,C0C670,龍潭,局屬自動站,250.0,121.221389,24.870056,桃園市,龍潭區中興路726號（龍潭消防分隊）,2014-04-01,,,,
99,C0C680,龜山,局屬自動站,228.0,121.38656,25.02846,桃園市,龜山區文化一路250號(國立體育大學田徑場),2017-04-12,,,,
100,C0C700,中壢,局屬自動站,151.0,121.256375,24.977661,桃園市,中壢區成章四街120號(內壢高中樓頂),2017-12-27,,,,
101,C0C710,大溪永福,局屬自動站,143.0,121.324975,24.892936,桃園市,大溪區信義路1165號（永福國小）,2018-12-26,,,,
102,C0C720,竹圍,局屬自動站,21.0,121.239824,25.112692,桃園市,大園區沙崙段沙崙小號00719-000建號(竹圍第一機動巡邏隊樓頂),2022-03-09,,,,
103,C0C730,中大臨海站,局屬自動站,5.0,121.008581,24.966126,桃園市,新屋區蚵殼港段深圳小段52-41號土地(中央大學臨海工作站),2022-03-09,,,,
104,C0C740,觀音工業區,局屬自動站,5.3,121.114856,25.064764,桃園市,觀音區經建七路5號(觀音工業區汙水處理廠迴流汙泥站機房樓頂),2022-03-09,,,,
105,C0C750,新興坑尾,局屬自動站,72.0,121.0971,25.0061,桃園市,觀音區文化路石橋段453號,2022-12-26,,,,
106,C0D360,梅花,局屬自動站,523.0,121.208558,24.678347,新竹縣,尖石鄉梅花村1鄰11號(梅花國小校園內),1987-06-01,,,,
107,C0D430,峨眉,局屬自動站,87.0,121.017189,24.6905,新竹縣,峨眉鄉31541峨眉村峨眉街54號(峨眉國中校園內),2011-12-01,,原(C1D430)站因擴充為氣象站，於2011/12/1升級為(C0D430)站。,C1D430,
108,C0D480,打鐵坑,局屬自動站,223.0,121.150789,24.849664,新竹縣,新埔鎮新北里8鄰大北坑28號旁,2008-01-01,,原(C1D480)站因擴充為氣象站，於2008/1/1升級為(C0D480)站。,C1D480,
109,C0D540,橫山,局屬自動站,227.0,121.11693,24.71116,新竹縣,橫山鄉橫山村橫山段426-6地號上,2007-10-01,,,,
110,C0D550,雪霸,局屬自動站,1956.0,121.11605,24.526972,新竹縣,五峰鄉桃山村民石380號(雪霸農場內),2007-10-01,,,,
111,C0D560,竹東,局屬自動站,147.0,121.057881,24.767147,新竹縣,竹東鎮二重國民小學校園內,2008-01-01,,原(C1D560)站因擴充為氣象站，於2008/1/1升級為(C0D560)站。,C1D560,
112,C0D580,寶山,局屬自動站,120.0,121.025192,24.735006,新竹縣,寶山鄉新湖路280號旁,2007-12-01,,,,
113,C0D590,新豐,局屬自動站,143.0,120.97721,24.87068,新竹縣,新豐鄉松柏村康和路199號(小叮噹科學主題樂園),2007-10-01,,原(C0C580)站因縣市代碼不符，於2008/2/25重新編碼為(C0D590)站。,C0C580,
114,C0D650,湖口,局屬自動站,97.0,121.043628,24.904794,新竹縣,湖口鄉信勢村三鄰成功路109號(湖口消防分隊),2013-10-01,,,,
115,C0D660,新竹市東區,局屬自動站,65.0,120.986942,24.798681,新竹市,東區光復路二段321號（工研院光復院區6館）,2014-11-01,,,,
116,C0D670,海天一線,局屬自動站,23.0,120.914438,24.831986,新竹市,北區(海天一線看海公園),2022-03-09,,,,
117,C0D680,香山濕地,局屬自動站,24.0,120.914988,24.783581,新竹市,香山區西濱路三段500巷17號,2022-03-09,,,,
118,C0D690,外湖,局屬自動站,20.0,120.968711,24.917735,新竹縣,新豐鄉新豐段00369-000建號(外湖守望哨樓頂),2022-03-09,,,,
119,C0D700,關西,局屬自動站,155.0,121.1732,24.7977,新竹縣,新竹縣關西鎮北斗里北門口41號(關西國中校園內),2023-02-19,,原(C0D390)站因移位，於2023/02/19變更為(C0D700)站。,C0D390,
120,C0E420,竹南,局屬自動站,19.0,120.888897,24.708978,苗栗縣,竹南鎮大埔里仁愛路1092號(竹南鎮大埔國民小學內),1987-06-01,,,,
121,C0E430,南庄,局屬自動站,258.0,121.000214,24.601775,苗栗縣,南庄鄉東村文化路3號(南庄國小校園內),1987-06-01,,,,
122,C0E520,大湖,局屬自動站,320.0,120.87087,24.41494,苗栗縣,大湖鄉大寮村5鄰竹高屋34-1號附近,2011-11-01,,原(C1E520)站因擴充為氣象站，於2011/11/1升級為(C0E520)站。,C1E520,
123,C0E540,後龍,局屬自動站,32.0,120.783933,24.606489,苗栗縣,後龍鎮後龍溪橋旁高地,2011-11-01,,原(C1E540)站因擴充為氣象站，於2011/11/1升級為(C0E540)站。,C1E540,
124,C0E550,明德,局屬自動站,84.0,120.885411,24.583486,苗栗縣,頭屋鄉明德水庫水利工作站屋頂上,2011-11-01,,原(C1E550)站因擴充為氣象站，於2011/11/1升級為(C0E550)站。,C1E550,
125,C0E590,通霄,局屬自動站,40.0,120.704622,24.471892,苗栗縣,通霄鎮城北里1鄰13號(通霄鎮城中國民小學內),2011-11-01,,原(C1E590)站因擴充為氣象站，於2011/11/1升級為(C0E590)站，原為土城雨量站。,C1E590,
126,C0E610,馬都安,局屬自動站,850.0,120.930192,24.451272,苗栗縣,泰安鄉錦水村(由泰安開車約2小時瞭望台旁),1990-07-21,,,,
127,C0E730,頭份,局屬自動站,26.0,120.912206,24.688247,苗栗縣,頭份市中正路219號(苗栗縣頭份鎮頭份國小校園內),2007-12-01,,,,
128,C0E740,造橋,局屬自動站,27.0,120.864778,24.637056,苗栗縣,造橋鄉造橋村14鄰3號(造橋國小),2011-11-01,,,,
129,C0E750,苗栗,局屬自動站,62.0,120.824575,24.564569,苗栗縣,苗栗市中正路241號(建功國小),2011-11-01,,,,
130,C0E780,銅鑼,局屬自動站,160.0,120.790853,24.489681,苗栗縣,銅鑼鄉福興村文化街1號(銅鑼國小),2011-11-01,,,,
131,C0E791,卓蘭,局屬自動站,366.0,120.8244,24.3126,苗栗縣,卓蘭鎮中山路125-1號(卓蘭鎮圖書館樓頂),2022-09-21,,原(C0E790)站因移位，於2022/9/21變更為(C0E791)站。,C0E790,
132,C0E810,西湖,局屬自動站,53.0,120.7485,24.562947,苗栗縣,西湖鄉二湖村2鄰22號(僑文國小),2011-11-01,,,,
133,C0E820,獅潭,局屬自動站,220.0,120.920042,24.539133,苗栗縣,獅潭鄉新店村11鄰103-2號(獅潭鄉公所圖書館樓頂),2011-12-01,,,,
134,C0E830,苑裡,局屬自動站,37.0,120.653053,24.439714,苗栗縣,苑裡鎮信義路1號(苑裡鎮公所),2013-12-01,,,,
135,C0E850,大河,局屬自動站,104.0,120.948578,24.618069,苗栗縣,三灣鄉大河村48號(大河派出所),2015-08-04,,,,
136,C0E870,高鐵苗栗,局屬自動站,34.0,120.826094,24.60725,苗栗縣,後龍鎮高鐵三路268號(高鐵苗栗站外),2017-08-01,,,,
137,C0E880,三義,局屬自動站,507.0,120.74982,24.40548,苗栗縣,苗栗縣三義鄉130縣道13.5K附近（慈濟山茶園內）,2020-01-07,,,,
138,C0E910,海埔,局屬自動站,25.0,120.772435,24.648767,苗栗縣,後龍鎮海埔125之15號(外埔安檢所樓頂),2022-03-09,,,,
139,C0E920,通霄漁港,局屬自動站,20.0,120.673876,24.498589,苗栗縣,通霄鎮漁港路69號(通霄安檢所樓頂),2022-03-09,,,,
140,C0E930,龍鳳,局屬自動站,26.0,120.859125,24.700034,苗栗縣,竹南鎮龍鳳里龍江街359巷5號(龍鳳安檢所樓頂),2022-03-09,,,,
141,C0F0A0,雪山圈谷,局屬自動站,3587.0,121.236339,24.388594,臺中市,和平區(往雪山主峰路上9.8公里處右邊),2016-07-15,,,,
142,C0F0B0,石岡,局屬自動站,311.0,120.777644,24.276061,臺中市,石岡區石岡街6號 (臺中市石岡區衛生所),2016-10-01,,,,
143,C0F0C0,中坑,局屬自動站,983.0,120.903319,24.248517,臺中市,和平區中坑里中坑段39地號內,2017-06-14,,,,
144,C0F0D0,審馬陣,局屬自動站,3171.0,121.4203,24.381675,臺中市,和平區南湖大山指標16.2K處(審馬陣山附近),2017-12-28,,,,
145,C0F0E0,南湖圈谷,局屬自動站,3557.0,121.444667,24.363714,臺中市,和平區南湖大山指標20K處(南湖主峰東峰岔路附近),2017-12-28,,,,
146,C0F850,東勢,局屬自動站,379.0,120.833047,24.246428,臺中市,東勢區東關路647號(東勢林區管理處雙崎工作站內),2011-11-01,,原(C1F850)站因擴充為氣象站，於2011/11/1升級為(C0F850)站。,C1F850,
147,C0F861,梨山,局屬自動站,2215.0,121.243669,24.247522,臺中市,和平區梨山里福壽路29號（福壽山農場）,2004-07-01,,,C0F860,
148,C0F930,大甲,局屬自動站,100.0,120.640403,24.347667,臺中市,大甲區開元路71號(大甲高級工業職業學校內),2011-11-01,,原(C1F930)站因擴充為氣象站，於2011/11/1升級為(C0F930)站。,C1F930,
149,C0F970,大坑,局屬自動站,145.0,120.722289,24.173142,臺中市,北屯區軍福十三路268號(東山消防分隊),2011-11-01,,原(C1F970)站因擴充為氣象站，於2011/11/1升級為(C0F970)站。,C1F970,
150,C0F9A0,中竹林,局屬自動站,425.0,120.751061,24.103556,臺中市,太平區長龍路中埔二號橋至站址直線距離約1.7km,2011-11-01,,原(C1F9A0)站因擴充為氣象站，於2011/11/1升級為(C0F9A0)站。,C1F9A0,
151,C0F9I0,神岡,局屬自動站,194.0,120.658314,24.272481,臺中市,神岡區三民路639號(圳堵國小校園南側大樓屋頂平台),2011-11-01,,原(C1F9I0)站因擴充為氣象站，於2011/11/1升級為(C0F9I0)站。,C1F9I0,
152,C0F9K0,大安,局屬自動站,30.0,120.588025,24.345061,臺中市,大安區中庄里中山南路296號(大安國小),2011-11-01,,,,
153,C0F9L0,后里,局屬自動站,253.0,120.729725,24.310436,臺中市,后里區甲后路110號(后里國小),2011-11-01,,,,
154,C0F9M0,豐原,局屬自動站,230.0,120.720692,24.254322,臺中市,豐原區豐榮里12鄰新生北路155號(豐原國小),2011-11-01,,,,
155,C0F9N0,大里,局屬自動站,75.0,120.701378,24.092464,臺中市,大里區文化街120號(塗城國小),2011-11-01,,,,
156,C0F9O0,潭子,局屬自動站,175.0,120.703933,24.213106,臺中市,潭子區中山路二段435號(潭子國小),2011-11-01,,,,
157,C0F9P0,清水,局屬自動站,26.0,120.562242,24.312297,臺中市,清水區護岸路37號(高美國小),2011-11-01,,,,
158,C0F9Q0,外埔,局屬自動站,149.0,120.705686,24.347817,臺中市,外埔區土城里土城西路55號(安定國小),2011-11-01,,,,
159,C0F9R0,龍井,局屬自動站,20.0,120.528972,24.184536,臺中市,龍井區西里龍門路51號(龍井國小),2011-11-01,,,,
160,C0F9S0,烏日,局屬自動站,43.0,120.624103,24.107058,臺中市,烏日區中山路二段196號(烏日國小),2011-11-01,,,,
161,C0F9T0,西屯,局屬自動站,111.0,120.641275,24.179494,臺中市,西屯區西屯路二段300號(西屯國小),2011-11-01,,,,
162,C0F9U0,南屯,局屬自動站,74.0,120.637969,24.137006,臺中市,南屯區黎明路一段968號(南屯國小),2011-11-01,,,,
163,C0F9V0,新社,局屬自動站,525.0,120.815806,24.200172,臺中市,新社區大南里興中街46號(農委會種苗改良繁殖場),2011-11-01,,,,
164,C0F9X0,大雅(中科園區),局屬自動站,166.0,120.62445,24.21528,臺中市,大雅區中部科學工業園區臺中園區(汙水處理機房樓頂),2015-08-21,,,,
165,C0F9Y0,桃山,局屬自動站,3313.0,121.303808,24.432739,臺中市,和平區(位於往桃山山屋叉路解說牌附近),2016-07-15,,,,
166,C0F9Z0,雪山東峰,局屬自動站,3193.0,121.268675,24.388792,臺中市,和平區(位於雪山東峰直升機停機坪東南東方60公尺處),2016-07-15,,,,
167,C0FA00,烏石坑,局屬自動站,983.0,120.94762,24.2735,臺中市,和平區東崎路2段烏石巷109號,2020-10-31,,,,
168,C0FA10,松柏,局屬自動站,22.0,120.617482,24.429115,臺中市,大甲區順帆路233號(松柏安檢所樓頂),2022-03-09,,,,
169,C0FA20,溫寮,局屬自動站,26.0,120.583125,24.372177,臺中市,大安區中山北路1巷67號(臺中大安區里民活動中心樓頂),2022-03-09,,,,
170,C0FA30,梧棲,局屬自動站,31.73,120.523381,24.256003,臺中市,梧棲區臺灣大道十段2號海港大樓6樓,2022-08-01,,本站站碼於2022/8/1由467770改為C0FA30。,467770,
171,C0FA40,臺中電廠,局屬自動站,25.0,120.4907,24.2146,臺中市,龍井區龍昌路1號,2022-12-26,,,,
172,C0FA50,霧峰,局屬自動站,58.0,120.6995,24.0419,臺中市,霧峰區新生路192號(921地震教育園區內),2023-03-10,,,,
173,C0G620,芬園,局屬自動站,110.0,120.6213,24.015678,彰化縣,芬園鄉楓坑村大埔崙產業道路上(芬園往臺灣民俗村路上),2011-11-01,,原(C1G620)站因擴充為氣象站，於2011/11/1升級為(C0G620)站。,C1G620,
174,C0G640,鹿港,局屬自動站,17.0,120.430481,24.0753,彰化縣,鹿港鎮海埔里顏厝巷67號(行政院退輔會魚殖管理處彰化分場內),1992-07-01,,,,
175,C0G650,員林,局屬自動站,34.0,120.585597,23.946503,彰化縣,員林市萬年里明倫路2號(明倫國中內),1992-07-01,,本站於2011/3/10進行儀器汰換，於2011/11/1完成驗收。,,
176,C0G660,溪湖,局屬自動站,27.0,120.479122,23.94835,彰化縣,溪湖鎮大竹里彰水路2段725號(湖南國民小學內),2011-11-01,,原(C1G660)站因擴充為氣象站，於2011/11/1升級為(C0G660)站。,C1G660,
177,C0G720,溪州,局屬自動站,50.0,120.499093,23.851589,彰化縣,溪州鄉溪下路四段560號(溪州鄉公所),2015-07-03,,,,
178,C0G730,二林,局屬自動站,27.0,120.376081,23.903325,彰化縣,二林鎮仁愛路200號(二林消防分隊),2015-07-03,,原中西(C1G700)站因移位及擴充為氣象站，於2015/7/1升級為(C0G730)站，站名更變為二林。,C1G700,
179,C0G740,大城,局屬自動站,24.0,120.320935,23.852487,彰化縣,大城鄉東城村中平路185號(大城鄉公所),2015-07-03,,,,
180,C0G770,福興,局屬自動站,15.0,120.437669,24.041289,彰化縣,福興鄉員鹿路二段270號(福興國中),2011-11-01,,,,
181,C0G780,秀水,局屬自動站,27.0,120.503869,24.03405,彰化縣,秀水鄉安東村中山路257號(秀水國小),2011-11-01,,,,
182,C0G800,埔鹽,局屬自動站,15.0,120.431683,24.000394,彰化縣,埔鹽鄉永樂村永樂路600號(永樂國小),2011-11-01,,,,
183,C0G810,埔心,局屬自動站,26.0,120.525456,23.947633,彰化縣,埔心鄉舊館村員鹿路四段201號(舊館國小),2011-11-01,,,,
184,C0G820,田尾,局屬自動站,29.0,120.509389,23.901669,彰化縣,田尾鄉中正路二段101號(仁豐國小),2011-11-01,,,,
185,C0G830,埤頭,局屬自動站,27.0,120.452806,23.866003,彰化縣,埤頭鄉大湖村大湖路260號(大湖國小),2011-11-01,,,,
186,C0G840,北斗,局屬自動站,32.0,120.514222,23.877586,彰化縣,北斗鎮斗苑路二段150號(螺陽國小),2011-11-01,,,,
187,C0G860,社頭,局屬自動站,45.0,120.5862,23.897647,彰化縣,社頭鄉社斗路一段258號(社頭國小),2011-11-01,,,,
188,C0G870,芳苑,局屬自動站,12.0,120.320025,23.922303,彰化縣,芳苑鄉仁愛村斗苑路芳苑段211號(芳苑國中),2011-11-01,,,,
189,C0G880,二水,局屬自動站,92.0,120.6173,23.810742,彰化縣,二水鄉文化村119號(二水國小),2011-11-01,,,,
190,C0G890,伸港,局屬自動站,24.0,120.484403,24.148933,彰化縣,伸港鄉新港村和平路60號(新港國小),2011-11-01,,,,
191,C0G900,線西,局屬自動站,20.0,120.443536,24.143358,彰化縣,線西鄉慶福路300號（彰濱工業區線西服務大樓內),2019-11-22,,,,
192,C0G910,花壇,局屬自動站,42.0,120.549461,24.032076,彰化縣,彰化縣花壇鄉彰員路2段580號（花壇國中內）,2019-12-20,,,,
193,C0G920,永靖,局屬自動站,42.0,120.547533,23.924703,彰化縣,永靖鄉瑚璉路230號（永靖鄉公所樓頂）,2022-01-04,,,,
194,C0G940,竹塘,局屬自動站,21.0,120.386764,23.848253,彰化縣,竹塘鄉東陽路二段123號（長安國小校園內）,2022-01-22,,,,
195,C0G950,防潮門,局屬自動站,23.0,120.4871,24.1835,彰化縣,伸港鄉全興村西全路167巷111之1號,2022-12-26,,,,
196,C0G960,福寶,局屬自動站,5.0,120.3814,24.0443,彰化縣,福興鄉,2022-12-26,,,,
197,C0G970,三豐,局屬自動站,19.0,120.2895,23.882,彰化縣,大城鄉三豐村和平路30之1號,2022-12-26,,,,
198,C0H890,埔里,局屬自動站,440.0,120.952425,23.972169,南投縣,埔里鎮大城里大城路169號(南投縣立大成國民中學內),2016-01-01,,原大肚城(C1H890)站因擴充為氣象站，於2015/9/4升級為(C0H890)站，站名更變為埔里。,C1H890,
199,C0H950,中寮,局屬自動站,192.0,120.766406,23.884447,南投縣,中寮鄉復興村初中巷50號(中寮國中校園內),2011-11-01,,原(C1H950)站因擴充為氣象站，於2011/11/1升級為(C0H950)站。,C1H950,
200,C0H960,草屯,局屬自動站,120.0,120.68085,23.973672,南投縣,草屯鎮中山里草鞋墩1街8號(草屯鎮公所樓頂),2011-11-01,,原(C1H960)站因擴充為氣象站，於2011/11/1升級為(C0H960)站。,C1H960,
201,C0H990,昆陽,局屬自動站,3076.0,121.273642,24.121322,南投縣,仁愛鄉昆陽警察局後方下坡處(太魯閣國家公園)石碑後20公尺,1992-07-01,,本站於2015/8/24起進行儀器汰換，並於2015/12/31完成驗收。,,
202,C0H9A0,神木村,局屬自動站,1595.0,120.843667,23.532742,南投縣,信義鄉神木村神木工作分站後方山坡上(對高岳營林區29林班地444號土地),1999-02-01,,本站於2015/9/21起進行儀器汰換，並於2015/12/31完成驗收。,,
203,C0H9C0,合歡山,局屬自動站,3402.0,121.272547,24.143442,南投縣,仁愛鄉(近合歡山三角點，由松雪樓開車約15分鐘，大甲溪事業區第81林班),2008-02-25,,原(C0F950)站因縣市代碼不符，於2008/2/25重新編碼為(C0H9C0)站。,C0F950,
204,C0I010,廬山,局屬自動站,1562.0,121.181808,24.033311,南投縣,仁愛鄉大同村仁和路21號(埔里-霧社收費站-盧山電力公司瞭望台),1992-07-01,,本站於2015/7/30起進行儀器汰換，並於2015/12/31完成驗收。,,
205,C0I080,信義,局屬自動站,536.0,120.851036,23.689694,南投縣,信義鄉自強村綠美巷(內茅埔營林區23林班地),2016-01-01,,原(C1I080)站因擴充為氣象站，於2015/9/22升級為(C0I080)站。,C1I080,
206,C0I090,鳳凰,局屬自動站,910.0,120.787347,23.728081,南投縣,鹿谷鄉鳳凰鳥園旁,1992-07-01,,,,
207,C0I110,竹山,局屬自動站,161.0,120.688156,23.761225,南投縣,竹山鎮延和里向學街32號(竹山國民小學內),1992-07-01,,,,
208,C0I360,水里,局屬自動站,300.0,120.849792,23.812553,南投縣,水里鄉中山路一段515號(玉山國家公園管理處),2016-01-01,,,,
209,C0I370,魚池,局屬自動站,671.0,120.94135,23.895703,南投縣,魚池鄉東池村魚池街194號(魚池鄉衛生所),2016-01-01,,,,
210,C0I380,集集,局屬自動站,258.0,120.801467,23.828206,南投縣,集集鎮民生東路1號(農委會特有生物研究保育中心),2016-01-01,,,,
211,C0I390,仁愛,局屬自動站,1184.0,121.132206,24.022122,南投縣,仁愛鄉仁和路50號(台電公司仁愛服務所),2016-01-01,,,,
212,C0I410,名間,局屬自動站,180.0,120.701447,23.837053,南投縣,名間鄉董門巷2號(名間鄉立體停車場),2016-01-01,,,,
213,C0I420,國姓,局屬自動站,305.0,120.855072,24.037803,南投縣,國姓鄉民族街40號(國姓鄉老人文康活動中心),2016-01-01,,,,
214,C0I460,南投,局屬自動站,110.0,120.687331,23.911469,南投縣,南投市龍泉里玉井街5號(南投市公所樓頂),2015-09-21,,,,
215,C0I480,梅峰,局屬自動站,2165.0,121.173572,24.085272,南投縣,仁愛鄉大同村仁和路215號(梅峰農場),2016-01-01,,,,
216,C0I490,萬大林道,局屬自動站,1601.0,121.091411,23.928228,南投縣,仁愛鄉曲冰段(萬大林道約7.2k附近高地),2016-01-01,,,,
217,C0I520,玉山風口,局屬自動站,3860.0,120.955994,23.470489,南投縣,信義鄉(玉山主峰往北峰叉路空地附近),2016-07-15,,,,
218,C0I530,小奇萊,局屬自動站,3014.0,121.295717,24.131764,南投縣,仁愛鄉小奇萊步道指標1.5K處附近,2017-12-28,,,,
219,C0I540,奇萊稜線,局屬自動站,3344.0,121.326456,24.109231,南投縣,仁愛鄉奇萊連峰指標6.4K處(奇萊山屋附近),2017-12-28,,,,
220,C0K240,草嶺,局屬自動站,1132.0,120.693461,23.59555,雲林縣,古坑鄉草嶺村龍頭,1992-07-01,,,,
221,C0K250,崙背,局屬自動站,12.0,120.318925,23.75555,雲林縣,崙背鄉阿勸村阿勸農場(阿勸段487號),2016-01-01,,原(C1K250)站因擴充為氣象站，於2015/6/8升級為(C0K250)站。,C1K250,
222,C0K280,四湖,局屬自動站,23.0,120.227125,23.630414,雲林縣,四湖鄉湖西村中正路766號(四湖國民中學內),1993-03-01,,本站於2015/7/18起進行儀器汰換，並於2015/12/31完成驗收。,,
223,C0K291,宜梧,局屬自動站,8.0,120.169329,23.536281,雲林縣,口湖鄉湖口村170號央廣口湖分台內(憲兵排樓頂),2010-09-27,,原(C0K290)站因觀測位置不佳，於2010/9/27更變為(C0K291)站。於2015/7/1遷移至原址鄰近旁建物樓頂並進行儀器汰換。,C0K290,
224,C0K330,虎尾,局屬自動站,38.0,120.442036,23.719183,雲林縣,虎尾鎮林森路一段64號(中正國民小學內),1993-03-01,,本站於2015/5/27起進行儀器汰換，並於2015/7/1完成驗收。,,
225,C0K390,土庫,局屬自動站,31.0,120.395574,23.679029,雲林縣,土庫鎮建國路41號(土庫消防分隊),2015-07-03,,,,
226,C0K400,斗六,局屬自動站,65.0,120.541127,23.720583,雲林縣,斗六市鎮北路345-1號(斗六消防分隊),2015-07-03,,,,
227,C0K410,北港,局屬自動站,20.0,120.292802,23.573957,雲林縣,北港鎮大同路565號(北港消防分隊),2015-07-03,,,,
228,C0K420,西螺,局屬自動站,42.0,120.467394,23.800407,雲林縣,西螺鎮公正路211號(西螺消防分隊),2015-07-03,,,,
229,C0K430,褒忠,局屬自動站,30.0,120.303634,23.690938,雲林縣,褒忠鄉中正路451號(褒忠鄉公所),2015-07-03,,,,
230,C0K440,二崙,局屬自動站,35.0,120.408944,23.772797,雲林縣,二崙鄉中正路80號(二崙消防分隊),2016-01-01,,,,
231,C0K450,大埤,局屬自動站,35.0,120.431537,23.646074,雲林縣,大埤鄉中山路8號(大埤鄉公所),2015-07-03,,,,
232,C0K460,斗南,局屬自動站,60.0,120.478359,23.678734,雲林縣,斗南鎮延平路二段266號(斗南鎮停一立體停車場),2015-07-03,,,,
233,C0K470,林內,局屬自動站,97.0,120.609642,23.748675,雲林縣,林內鄉中正路685號(林內消防分隊),2016-01-01,,,,
234,C0K480,莿桐,局屬自動站,56.0,120.502372,23.761192,雲林縣,莿桐鄉和平路53號(莿桐鄉公所),2016-01-01,,,,
235,C0K500,元長,局屬自動站,12.0,120.315024,23.64981,雲林縣,元長鄉長南村仁愛街2號(元長鄉公所),2015-07-03,,,,
236,C0K510,水林,局屬自動站,10.0,120.24597,23.572924,雲林縣,水林鄉水北村水林路12號(水林鄉公所),2015-07-03,,,,
237,C0K530,臺西,局屬自動站,12.0,120.197559,23.701547,雲林縣,台西鄉中山路110巷38號(臺西消防分隊),2015-07-03,,,,
238,C0K550,蔦松,局屬自動站,15.0,120.229736,23.514319,雲林縣,水林鄉松中村蔦松路213號(蔦松國小),2016-01-01,,,,
239,C0K560,棋山,局屬自動站,117.0,120.603417,23.68645,雲林縣,古坑鄉棋盤村棋山49號(棋山國小),2016-01-01,,,,
240,C0K580,高鐵雲林,局屬自動站,26.0,120.417944,23.737456,雲林縣,虎尾鎮站前東路301號(高鐵雲林站外),2017-08-01,,,,
241,C0K590,雲林東勢,局屬自動站,18.0,120.255721,23.674192,雲林縣,東勢鄉東榮路29巷1號(東勢鄉圖書館樓頂),2022-03-22,,,,
242,C0K600,箔子寮,局屬自動站,14.0,120.14,23.6197,雲林縣,口湖鄉漁港路370號,2022-12-26,,,,
243,C0M410,馬頭山,局屬自動站,245.0,120.582017,23.324361,嘉義縣,大埔鄉永樂村1鄰內灣仔2號,1988-12-01,,本站於2013/3/21 進行儀器汰換，並於2013/8/1完成驗收。,,
244,C0M520,東後寮,局屬自動站,15.0,120.248065,23.369908,嘉義縣,義竹鄉東光村7號(台糖東後寮農場),2015-07-03,,原(C1M520)站因擴充為氣象站，於2015/7/1升級為(C0M520)站。,C1M520,
245,C0M530,奮起湖,局屬自動站,1385.0,120.699253,23.493903,嘉義縣,竹崎鄉阿里山事業區148林班地(中興苗圃內),1993-03-01,,本站於2015/7/7起進行儀器汰換，並於2015/12/31完成驗收。,,
246,C0M640,中埔,局屬自動站,155.0,120.5229,23.42538,嘉義縣,中埔鄉中埔村128號(中埔鄉公所),2015-07-03,,,,
247,C0M650,朴子,局屬自動站,20.0,120.23902,23.43463,嘉義縣,朴子市竹村里36號(竹村國小),2015-07-03,,,,
248,C0M660,溪口,局屬自動站,40.0,120.403569,23.604131,嘉義縣,溪口鄉中正東路103號(溪口國中學生活動中心),2015-07-03,,,,
249,C0M670,大林,局屬自動站,43.0,120.45841,23.600616,嘉義縣,大林鎮新興街110號(大林地政事務所),2015-07-03,,,,
250,C0M680,太保,局屬自動站,37.0,120.331455,23.455062,嘉義縣,太保市太保里31號(太保市圖書館),2015-07-03,,,,
251,C0M690,水上,局屬自動站,33.0,120.388909,23.419734,嘉義縣,水上鄉三鎮村三鎮路119號(水上消防分隊),2015-07-03,,,,
252,C0M700,竹崎,局屬自動站,150.0,120.555508,23.526178,嘉義縣,竹崎鄉竹崎村舊車站79號(竹崎消防分隊),2015-07-03,,,,
253,C0M710,東石,局屬自動站,15.0,120.15385,23.458927,嘉義縣,東石鄉東石村3號(東石鄉公所),2015-07-03,,,,
254,C0M720,番路,局屬自動站,225.0,120.554156,23.464657,嘉義縣,番路鄉下坑村蔡公店101號(番路鄉公所),2015-07-03,,,,
255,C0M730,嘉義市東區,局屬自動站,40.0,120.460531,23.457673,嘉義市,親水路123 號(第五河川局水情中心),2015-07-03,,,,
256,C0M740,六腳,局屬自動站,15.0,120.290625,23.492871,嘉義縣,六腳鄉蒜頭村73-2號(六腳消防分隊),2015-07-03,,,,
257,C0M750,布袋,局屬自動站,10.0,120.167789,23.380878,嘉義縣,布袋鎮龍江里2-2號(布袋消防分隊),2015-07-03,,,,
258,C0M760,民雄,局屬自動站,40.0,120.428457,23.551754,嘉義縣,民雄鄉文化路7號(民雄鄉公所),2015-07-03,,,,
259,C0M770,嘉義梅山,局屬自動站,164.0,120.555587,23.585398,嘉義縣,梅山鄉中山路282號(梅山鄉公所),2015-07-03,,,,
260,C0M780,鹿草,局屬自動站,30.0,120.30835,23.41134,嘉義縣,鹿草鄉西井村287號(鹿草鄉公所),2015-07-03,,,,
261,C0M790,新港,局屬自動站,15.0,120.345728,23.553269,嘉義縣,新港鄉公園路28號(新港消防分隊),2015-07-03,,,,
262,C0M800,茶山,局屬自動站,440.0,120.664767,23.299075,嘉義縣,阿里山鄉茶山路62號之1(茶山村衛生室),2016-01-01,,,,
263,C0M810,里佳,局屬自動站,1354.0,120.716647,23.389125,嘉義縣,阿里山鄉里佳村,2016-01-01,,,,
264,C0M820,達邦,局屬自動站,980.0,120.749517,23.453994,嘉義縣,阿里山鄉達邦村21號(鄒族自然與文化中心),2016-01-01,,,,
265,C0M850,表湖,局屬自動站,695.0,120.64166,23.24186,嘉義縣,大埔鄉溪頭段1地號,2018-02-14,,,,
266,C0M860,新美,局屬自動站,578.0,120.683169,23.338017,嘉義縣,嘉義縣阿里山鄉新美村78號,2020-03-31,,,,
267,C0M880,好美里,局屬自動站,27.0,120.138,23.3364,嘉義縣,布袋鎮好美里106號,2022-12-26,,,,
268,C0N010,鯤鯓國小,局屬自動站,19.0,120.0889,23.1879,臺南市,將軍區6號,2022-12-26,,,,
269,C0N020,城西,局屬自動站,27.0,120.0956,23.0568,臺南市,安南區城西街三段431號,2022-12-26,,,,
270,C0N030,四草,局屬自動站,2.0,120.1116,23.0235,臺南市,安南區,2022-12-26,,,,
271,C0N040,蘆竹溝,局屬自動站,22.0,120.0961,23.2344,臺南市,北門區蘆竹溝333之11號,2022-12-26,,,,
272,C0N050,蚵寮,局屬自動站,37.0,120.1104,23.301,臺南市,北門區保吉里雙春里8鄰73-20號,2022-12-26,,,,
273,C0O810,曾文,局屬自動站,161.0,120.497328,23.219681,臺南市,楠西區曾文新村(曾文水庫管理局內),1988-12-01,,本站於 2013/5/9 進行儀器汰換，並於2013/8/1完成驗收。,,
274,C0O830,北寮,局屬自動站,127.0,120.495008,23.079561,臺南市,南化區北寮里48-4號,2013-04-18,,原(C1O830)站因擴充為氣象站，於2013/4/18升級為(C0O830)站。,C1O830,
275,C0O840,王爺宮,局屬自動站,134.0,120.40085,23.222064,臺南市,六甲區王爺里24號（六甲國小湖東分校）,2013-12-01,,原(C1O840)站因觀測條件不佳及擴充為氣象站，於2013/12/1升級為(C0O840)站。,C1O840,
276,C0O860,大內,局屬自動站,38.0,120.36083,23.11885,臺南市,大內區74201大內里63號(大內國民小學),2013-08-01,,原(C1O860)站因擴充為氣象站，於2013/8/1升級為(C0O860)站。,C1O860,
277,C0O900,善化,局屬自動站,9.0,120.297219,23.112883,臺南市,善化區益民寮60號(亞洲蔬菜研究發展中心內),1988-12-01,,本站於 2013/5/11 進行儀器汰換，並於2013/8/1完成驗收。,,
278,C0O930,玉井,局屬自動站,69.0,120.46055,23.126042,臺南市,玉井區台灣糖業公司玉井糖廠,1988-12-01,,,,
279,C0O950,安南,局屬自動站,4.0,120.144861,23.076694,臺南市,安南區公學路6段589號(學東國民小學內),2013-08-01,,原(C1O950)站因擴充為氣象站，於2013/8/1升級為(C0O950)站。,C1O950,
280,C0O960,崎頂,局屬自動站,112.0,120.369317,22.959547,臺南市,龍崎區中坑里5鄰13號,2013-04-18,,原(C1O960)站因擴充為氣象站，於2013/4/18升級為(C0O960)站。,C1O960,
281,C0O970,虎頭埤,局屬自動站,71.0,120.347878,23.021375,臺南市,新化區口埤18號(新化分場),2013-08-01,,原(C1O970)站因擴充為氣象站，於2013/8/1升級為(C0O970)站。,C1O970,
282,C0O980,新市,局屬自動站,18.0,120.298197,23.061614,臺南市,新市區永就里53號(番子寮農場),2013-08-01,,原(C1O980)站因擴充為氣象站，於2013/8/1升級為(C0O980)站。,C1O980,
283,C0O990,媽廟,局屬自動站,18.0,120.293525,22.99175,臺南市,歸仁區中正北路3段60號(保西國民小學內),2013-12-01,,原(C1O990)站因擴充為氣象站，於2013/12/1升級為(C0O990)站。,C1O990,
284,C0R100,尾寮山,局屬自動站,1006.0,120.683889,22.833111,屏東縣,三地門鄉口社檢查站車程約2小時(尾寮山瞭望台旁),1992-05-01,,本站於2013/10/10進行儀器汰換，並於2013/12/1完成驗收。,,
285,C0R130,阿禮,局屬自動站,1040.0,120.743678,22.742908,屏東縣,霧台鄉(屏東事業區第46林班)由山地文化村開車約2小時需徒步轉波站前面,2013-08-01,,原(C1R130)站因擴充為氣象站，於2013/8/1升級為(C0R130)站。,C1R130,
286,C0R140,瑪家,局屬自動站,740.0,120.686639,22.682903,屏東縣,瑪家鄉瑪家村4鄰24號(後山),2013-08-01,,原(C1R140)站因擴充為氣象站，於2013/8/1升級為(C0R140)站。,C1R140,
287,C0R150,三地門,局屬自動站,105.0,120.639944,22.709889,屏東縣,內埔鄉水門村成功路83號(國立內埔高級農工職業學校內),1992-05-01,,本站於2013/9/10進行儀器汰換，並於2013/12/1完成驗收。,,
288,C0R160,鹽埔,局屬自動站,45.0,120.530778,22.739558,屏東縣,屏東縣鹽埔鄉七份路21號(彭厝國小),2013-12-01,,原(C1R160)站於2013/12/1變更為(C0R160)站。,C1R160,
289,C0R170,屏東,局屬自動站,26.0,120.494072,22.660269,屏東縣,屏東市復興路245號(台灣糖業公司屏東區處場區內),2013-12-01,,原(C1R170)站於2013/12/1變更為(C0R170)站。,C1R170,
290,C0R190,赤山,局屬自動站,32.0,120.614306,22.592333,屏東縣,萬巒鄉建興路40號（赤山國小）,2013-12-01,,原(C1R190)站因觀測環境不佳，於2013/12/1遷移至(C0R190)站。,C1R190,
291,C0R220,潮州,局屬自動站,23.0,120.54,22.534361,屏東縣,潮州鎮光春路290號(屏東縣立光春國民中學內),1992-05-01,,本站於2013/9/10進行儀器汰換，並於2013/12/1完成驗收。,,
292,C0R240,來義,局屬自動站,87.0,120.625111,22.527306,屏東縣,萬巒鄉新隆路64號萬巒農場（佳佐段180號）,2013-12-01,,原(C1R240)站因擴充為氣象站，於2013/12/1升級為(C0R240)站。,C1R240,
293,C0R260,春日,局屬自動站,76.0,120.628306,22.370361,屏東縣,春日鄉鄉公所資源回收場旁,2013-12-01,,原(C1R260)站因擴充為氣象站，於2013/12/1升級為(C0R260)站。,C1R260,
294,C0R270,琉球嶼,局屬自動站,51.0,120.362236,22.332244,屏東縣,琉球鄉天台段596及597地號,1997-07-01,,本站於2013/9/26進行儀器汰換，並於2013/12/1完成驗收。,,
295,C0R280,檳榔,局屬自動站,242.0,120.836777,22.076078,屏東縣,滿州鄉長樂村大公路14號(往南仁山方向),1997-07-01,,本站於2019/09/19進行儀器汰換，於2019/11/28完成驗收。,,
296,C0R320,車城,局屬自動站,7.0,120.716247,22.0744,屏東縣,車城鄉福興村中山路66號(車城國小),2019-11-28,,因擴充氣象站，原氣象站(C1R320)，於2019/11/28升級為氣象站，變更站碼為(C0R320)。,C1R320,
297,C0R341,牡丹,局屬自動站,230.0,120.792639,22.130036,屏東縣,199縣道23K-23.5K間車城往旭海方向之右側,2019-11-28,,因擴充氣象站，原氣象站(C1R340)，於2019/11/28升級為氣象站，變更站碼為(C0R341)。,C1R340,
298,C0R350,貓鼻頭,局屬自動站,35.0,120.7358,21.921774,屏東縣,恆春鎮(貓鼻頭風景區內),1997-07-01,,本站於2019/08/30進行儀器汰換，於2019/11/28完成驗收。,,
299,C0R440,大漢山,局屬自動站,1654.0,120.753181,22.405264,屏東縣,春日鄉大漢山頂,2019-11-28,,因擴充氣象站，原氣象站(C1R440)，於2019/11/28升級為氣象站，變更站碼為(C0R440)。,C1R440,
300,C0R470,高樹,局屬自動站,103.0,120.600806,22.826389,屏東縣,高樹鄉興中路330號(高樹圖書館),2013-08-01,,,,
301,C0R480,長治,局屬自動站,57.0,120.542622,22.693128,屏東縣,長治鄉德成村中興路572-1號(長治消防分隊),2013-08-01,,,,
302,C0R490,九如,局屬自動站,49.0,120.490503,22.7405,屏東縣,九如鄉九如路二段416號(九如鄉公所),2013-08-01,,,,
303,C0R520,崁頂,局屬自動站,18.0,120.506914,22.514781,屏東縣,崁頂鄉崁頂村興農路29-10號(崁頂消防分隊),2013-08-01,,,,
304,C0R540,佳冬,局屬自動站,17.0,120.552375,22.419456,屏東縣,佳冬鄉佳昌路2號(佳冬鄉公所),2013-08-01,,,,
305,C0R550,新埤,局屬自動站,38.0,120.582894,22.467947,屏東縣,新埤鄉民眾路103號(新埤消防分隊),2013-08-01,,,,
306,C0R560,新園,局屬自動站,22.0,120.461558,22.5434,屏東縣,新園鄉仙吉村店口路116號(新園消防分隊),2013-08-01,,,,
307,C0R570,麟洛,局屬自動站,37.0,120.52719,22.65078,屏東縣,麟洛鄉中山路158號(麟洛鄉公所),2013-12-01,,,,
308,C0R580,南州,局屬自動站,10.0,120.50274,22.48591,屏東縣,南州鄉溪南村人和路241號(南州消防分隊),2013-08-01,,,,
309,C0R590,里港,局屬自動站,72.0,120.49459,22.77919,屏東縣,里港鄉永春村中山路104號(里港鄉公所),2013-08-01,,,,
310,C0R600,舊泰武,局屬自動站,766.0,120.664944,22.588194,屏東縣,泰武鄉泰武村良武巷101號(舊泰武村老人活動中心),2013-12-01,,,,
311,C0R620,墾雷,局屬自動站,34.0,120.855269,21.900836,屏東縣,恆春鎮燈塔路51巷33號(氣象局墾丁雷達站區內),2016-06-22,,本站於2019/08/31進行儀器汰換，於2019/11/28完成驗收。,,
312,C0R640,東港,局屬自動站,21.0,120.44074,22.46247,屏東縣,東港鎮豐漁里豐漁街67號（水產試驗所東港生技研究中心）,2018-08-11,,,,
313,C0R650,竹田,局屬自動站,29.0,120.54344,22.58486,屏東縣,竹田鄉中正路123號(竹田鄉公所清潔隊),2018-08-11,,,,
314,C0R660,枋寮,局屬自動站,20.0,120.590647,22.367722,屏東縣,枋寮鄉枋寮村德興路197號(枋寮國小),2019-11-28,,,,
315,C0R670,楓港,局屬自動站,26.0,120.692156,22.190131,屏東縣,枋山鄉善餘村光復路24號(楓港國小),2019-11-28,,,,
316,C0R680,佳樂水,局屬自動站,13.0,120.861633,21.993578,屏東縣,滿州鄉佳樂水風景區內,2019-11-28,,,,
317,C0R690,墾丁,局屬自動站,348.0,120.810269,21.966756,屏東縣,恆春鎮墾丁森林遊樂區林業試驗所觀測坪,2019-11-28,,,,
318,C0R700,枋山,局屬自動站,19.0,120.661086,22.246844,屏東縣,枋山鄉中山路三段52號(加祿國小),2019-11-28,,,,
319,C0R710,龍磐,局屬自動站,117.0,120.838942,21.931672,屏東縣,屏東縣恆春助航台(NDB歸航台),2020-04-09,,,,
320,C0R720,旭海,局屬自動站,214.0,120.887614,22.205403,屏東縣,牡丹鄉旭海大草原步道旁,2019-11-28,,,,
321,C0R730,大坪頂,局屬自動站,163.0,120.69355,22.024633,屏東縣,屏東縣恆春鎮大坪頂電信機房旁,2020-04-09,,,,
322,C0R740,獅子,局屬自動站,58.0,120.70525,22.201569,屏東縣,屏東縣獅子鄉楓林村2巷26號,2020-04-09,,,,
323,C0R750,四林格山,局屬自動站,551.0,120.802439,22.076989,屏東縣,屏東縣牡丹鄉四林格山遊樂區第2涼亭旁大草原,2020-04-09,,,,
324,C0R760,南仁湖,局屬自動站,336.0,120.863353,22.084681,屏東縣,屏東縣滿州鄉南仁湖步道4K山頂觀測站旁,2020-04-09,,,,
325,C0R770,保力,局屬自動站,93.0,120.764111,22.071122,屏東縣,屏東縣車城鄉保力村竹社路5號,2020-04-09,,,,
326,C0R780,滿州,局屬自動站,72.0,120.839892,22.024403,屏東縣,屏東縣滿州鄉文化路32號,2020-04-09,,,,
327,C0R790,九棚,局屬自動站,111.0,120.889281,22.14195,屏東縣,屏東縣牡丹鄉九棚中科院基地,2020-04-09,,,,
328,C0R800,丹路,局屬自動站,131.0,120.750989,22.204481,屏東縣,屏東縣獅子鄉丹路一巷1號,2020-04-09,,,,
329,C0R810,內獅,局屬自動站,25.0,120.642986,22.305064,屏東縣,獅子鄉內獅村1號(內獅國小),2020-04-09,,,,
330,C0R820,白鷺,局屬自動站,588.0,120.666219,22.454275,屏東縣,屏東縣來義鄉白鷺大橋沿白鷺道路5.5公里處,2020-04-09,,,,
331,C0R830,高士,局屬自動站,383.0,120.836781,22.121825,屏東縣,屏東縣牡丹鄉高士社區進水廠水塔頂,2020-04-09,,,,
332,C0R840,牡丹池山,局屬自動站,536.0,120.841225,22.168389,屏東縣,屏東縣牡丹鄉牡丹池山山頂,2020-04-09,,,,
333,C0R850,林邊,局屬自動站,16.0,120.5339,22.4634,屏東縣,林邊鄉竹林村中興路122號,2022-12-26,,,,
334,C0R860,鼻頭,局屬自動站,31.0,120.8979,22.1043,屏東縣,滿州鄉九棚村,2022-12-26,,,,
335,C0R870,興海,局屬自動站,13.0,120.8439,21.9752,屏東縣,滿州鄉港口村13鄰興海路106號,2022-12-26,,,,
336,C0R880,後壁湖,局屬自動站,13.0,120.7457,21.9457,屏東縣,恆春鎮大光里9鄰大光路79之40號,2022-12-26,,,,
337,C0R890,山海,局屬自動站,33.0,120.7091,21.9878,屏東縣,恆春鎮山海里山海路2之1號,2022-12-26,,,,
338,C0R900,竹坑,局屬自動站,30.0,120.7022,22.1385,屏東縣,車城鄉海口村尖山46號,2022-12-26,,,,
339,C0R910,下寮,局屬自動站,8.0,120.5548,22.3929,屏東縣,枋寮鄉德聖路47號,2022-12-26,,,,
340,C0R920,塭仔,局屬自動站,19.0,120.5197,22.4169,屏東縣,佳冬鄉焰溫村炯興路51號,2022-12-26,,,,
341,C0R930,萬丹,局屬自動站,18.0,120.4851,22.5885,屏東縣,萬丹鄉和平西路149號（萬丹消防分隊樓頂）,2023-03-14,,原(C0R510)站因移位，於2023/03/14變更為(C0R930)站。,C0R510,
342,C0R940,加祿堂,局屬自動站,24.0,120.6217,22.3363,屏東縣,枋山鄉加祿村190之300號,2022-12-26,,原(C0E940)站因縣市代碼不符，於2023/01/04重新編碼為為(C0R940)站。,C0E940,
343,C0S660,下馬,局屬自動站,794.0,121.070312,23.150427,臺東縣,海端鄉廢棄下馬派出所旁,2019-06-07,,原(C1S660)站因擴充為氣象站，於2019/6/7升級為(C0S660)站。,C1S660,
344,C0S690,太麻里,局屬自動站,522.0,120.98533,22.60902,臺東縣,太麻里鄉(往金針山茶區之半路上),1997-07-01,,本站於2019/3/5起進行儀器汰換，於2019/6/7完成驗收。,,
345,C0S700,知本,局屬自動站,507.0,121.005642,22.684866,臺東縣,卑南鄉溫泉村(溫泉國小之樂山分校內),1997-07-01,,本站於2019/2/23進行儀器汰換，於2019/6/7完成驗收。,,
346,C0S710,鹿野,局屬自動站,382.0,121.122994,22.917711,臺東縣,鹿野鄉鹿野高台高眺亭公廁東側草地上,1997-07-01,,於2015/1/1短距離位移。本站於2019/3/20起進行儀器汰換，於2019/6/7完成驗收。,,
347,C0S730,綠島,局屬自動站,110.0,121.47533,22.6672,臺東縣,綠島鄉,1997-07-01,,本站於2019/3/25起進行儀器汰換，於2019/6/7完成驗收。,,
348,C0S740,池上,局屬自動站,289.0,121.209469,23.119628,臺東縣,池上鄉新興村104號(退輔會臺東農場內),1997-07-01,,本站於2019/3/22起進行儀器汰換，於2019/6/7完成驗收。,,
349,C0S750,向陽,局屬自動站,2280.0,120.986133,23.248397,臺東縣,海端鄉向陽(公路局向陽工務段圍牆內),1997-07-01,,本站於2019/4/16起進行儀器汰換，於2019/6/7完成驗收。,,
350,C0S760,紅石,局屬自動站,1621.0,121.126219,23.069131,臺東縣,海端鄉紅石(紅石瞭望臺旁),1997-07-01,,本站於2019/4/14起進行儀器汰換，於2019/6/7完成驗收。,,
351,C0S770,大溪山,局屬自動站,375.0,120.943325,22.478475,臺東縣,太麻里鄉多良村(廢棄中華電信轉播站旁),1997-07-01,,本站於2019/3/8起進行儀器汰換，於2019/6/7完成驗收。,,
352,C0S790,金崙,局屬自動站,236.0,120.966875,22.538122,臺東縣,太麻里鄉金崙段0304-1地號,2004-06-01,,本站於2019/2/26起進行儀器汰換，於2019/6/7完成驗收。,,
353,C0S810,東河,局屬自動站,65.0,121.303986,22.972672,臺東縣,東河鄉北東河17鄰26號(東河國民小學操場旁),2004-06-01,,原(C1S640)站因擴充為氣象站，於2004/6/1升級為(C0S810)站。本站於2019/3/31起進行儀器汰換，於2019/6/7完成驗收。,C1S640,
354,C0S830,長濱,局屬自動站,288.0,121.411975,23.286817,臺東縣,長濱鄉竹湖村移民橋後方山頂三角點旁,2004-06-01,,原(C1S650)站因擴充為氣象站，於2004/6/1升級為(C0S830)站。本站於2019/3/30起進行儀器汰換，於2019/6/7完成驗收。,C1S650,
355,C0S840,南田,局屬自動站,22.0,120.889208,22.279725,臺東縣,達仁鄉南田村南田風景區公園對面,2004-06-01,,本站於2019/3/13起進行儀器汰換，於2019/6/7完成驗收。,,
356,C0S890,關山,局屬自動站,238.0,121.175017,23.0395,臺東縣,關山鎮親水公園內,2016-01-01,,本站於2019/3/21起進行儀器汰換，於2019/6/7完成驗收。,,
357,C0S900,蘭嶼高中,局屬自動站,27.0,121.51214,22.04909,臺東縣,蘭嶼鄉椰油村37號（蘭嶼高中內）,2018-10-26,,,,
358,C0S910,蘭嶼燈塔,局屬自動站,212.0,121.503117,22.081197,臺東縣,蘭嶼鄉椰油段1-7地號（蘭嶼燈塔旁）,2018-10-26,,,,
359,C0S920,金峰嘉蘭,局屬自動站,133.0,120.960825,22.594789,臺東縣,金峰鄉嘉蘭村12鄰665號(金峰鄉嘉蘭村活動中心),2019-07-05,,,,
360,C0S930,延平,局屬自動站,248.0,121.084058,22.902581,臺東縣,臺東縣延平鄉昇平路75號(延平消防分隊),2019-07-05,,,,
361,C0S940,石寧山,局屬自動站,150.0,121.406639,23.223772,臺東縣,長濱鄉寧埔村石寧山附近山區,2019-07-05,,,,
362,C0S950,七塊厝,局屬自動站,415.0,121.229922,22.954453,臺東縣,東河鄉尚德村七塊厝產業道路附近山區,2019-07-05,,,,
363,C0S960,香蘭,局屬自動站,32.0,120.993375,22.587569,臺東縣,太麻里鄉香蘭村四鄰28號 (香蘭國小),2019-11-28,,,,
364,C0S970,加津林,局屬自動站,19.0,120.926942,22.416211,臺東縣,大武鄉大竹村14鄰加津林4號(舊高溪派出所),2019-07-05,,,,
365,C0S980,勝林山,局屬自動站,903.0,120.8938,22.430439,臺東縣,達仁鄉勝林山山頂停機坪旁(與大武鄉交界附近),2019-07-05,,,,
366,C0S990,山豬窟,局屬自動站,409.0,120.857372,22.318619,臺東縣,大武鄉南興村山豬窟產業道路附近山區(梅園涼亭旁),2019-07-05,,,,
367,C0SA00,歷坵,局屬自動站,466.0,120.89185,22.520969,臺東縣,金峰鄉歷坵產業道路附近山區,2019-07-05,,,,
368,C0SA10,檳榔四格山,局屬自動站,411.0,121.109308,22.810031,臺東縣,卑南鄉檳榔四格山山頂瞭望臺旁,2019-07-05,,,,
369,C0SA20,金崙山,局屬自動站,857.0,120.959667,22.567419,臺東縣,太麻里鄉富山產業道路附近山區(與金峰鄉交界附近),2019-07-05,,,,
370,C0SA30,都歷,局屬自動站,93.0,121.323642,23.020333,臺東縣,成功鎮新村路25號(東部海岸國家風景區管理處),2019-07-05,,,,
371,C0SA40,瑞和,局屬自動站,200.0,121.156697,22.974361,臺東縣,鹿野鄉瑞和村瑞景路3段1號(瑞源國中),2019-07-05,,,,
372,C0SA60,知本（水試所）,局屬自動站,11.0,121.082761,22.702394,臺東縣,臺東縣臺東市知本路2段291巷299號,2020-04-09,,,,
373,C0SA80,土?,局屬自動站,136.0,120.887572,22.453108,臺東縣,達仁鄉土?村1鄰10號(土?國民小學操場旁),2019-06-07,,原(C1S620)站因擴充為氣象站，於2019/3/23升級為(C0SA80)站。,C1S620,
374,C0SA90,達仁林場,局屬自動站,497.0,120.823972,22.264347,臺東縣,臺東縣達仁鄉臺東達五號農路4K處,2020-04-09,,,,
375,C0T790,大禹嶺,局屬自動站,2830.0,121.316086,24.186117,花蓮縣,秀林鄉立霧溪事業區67林班地(救國團大禹山莊),1996-01-01,,,,
376,C0T820,天祥,局屬自動站,550.0,121.495639,24.179597,花蓮縣,秀林鄉立霧溪事業區80林班地(天祥祥德寺),1996-01-01,,本站於2017/9/23起進行儀器汰換，於2017/12/1完成驗收。,,
377,C0T870,鯉魚潭,局屬自動站,135.0,121.508944,23.935639,花蓮縣,壽豐鄉池南村池南路一段8號(鯉魚潭風景區旁),1996-01-01,,本站於2017/4/7起進行儀器汰換，於2017/6/3完成驗收。,,
378,C0T900,西林,局屬自動站,160.0,121.441458,23.8119,花蓮縣,萬榮鄉西林路8鄰114號(西林國民小學運動場旁),2010-07-01,,原(C1T900)站因擴充為氣象站，於2010/7/1升級為(C0T900)站，2017/4/14起進行儀器汰換，於2017/6/3完成驗收。,C1T900,
379,C0T960,光復,局屬自動站,120.0,121.424964,23.660694,花蓮縣,光復鄉大進村糖廠街19號(台糖公司花蓮光復糖廠內),1996-01-01,,本站於2017/5/3起進行儀器汰換，於2017/6/3完成驗收。,,
380,C0T9A0,月眉山,局屬自動站,498.0,121.539828,23.809928,花蓮縣,壽豐鄉月眉山旁的小山丘上(過米棧大橋往山上水璉方向至四號橋左轉之山上),2000-10-01,,本站於2017/5/11起進行儀器汰換，於2017/6/3完成驗收。,,
381,C0T9B0,水源,局屬自動站,558.0,121.537169,23.991861,花蓮縣,秀林鄉原林務局水源段的苗圃內,2000-10-01,,本站於2017/3/27起進行儀器汰換，於2017/6/3完成驗收。,,
382,C0T9D0,和中,局屬自動站,8.0,121.74103,24.26676,花蓮縣,秀林鄉秀林村62號(和平國小和中分校校園內),2004-06-01,,本站於2017/10/12進行儀器汰換及短距離移位，於2017/12/1完成驗收。,,
383,C0T9E0,大坑,局屬自動站,415.0,121.581981,23.880628,花蓮縣,壽豐鄉10鄰山嶺80之1號(中華電信公司賀田山機房)旁,2004-06-01,,本站於2017/4/20起進行儀器汰換，於2017/6/3完成驗收。,,
384,C0T9F0,水璉,局屬自動站,251.0,121.542514,23.797131,花蓮縣,壽豐鄉水璉村,2004-06-01,,本站於2017/4/27起進行儀器汰換，於2017/6/3完成驗收。,,
385,C0T9G0,鳳林山,局屬自動站,605.0,121.420131,23.735269,花蓮縣,鳳林鎮,2004-06-01,,本站於2017/4/6起進行儀器汰換，於2017/6/3完成驗收。,,
386,C0T9H0,加路蘭山,局屬自動站,725.0,121.5274,23.682947,花蓮縣,豐濱鄉臨海段776-4號,2004-06-01,,本站於2017/4/19起進行儀器汰換，於2017/6/3完成驗收。,,
387,C0T9I0,豐濱,局屬自動站,152.0,121.514806,23.583897,花蓮縣,豐濱鄉豐濱村,2004-06-01,,本站於2017/4/25起進行儀器汰換，於2017/6/3完成驗收。,,
388,C0T9M0,靜浦,局屬自動站,92.0,121.495028,23.455167,花蓮縣,豐濱鄉靜浦村活動中心後山上,1997-07-01,,原(C0S720)站因縣市代碼不符，於2008/2/25重新編碼為(C0T9M0)站。本站於2019/4/9起進行儀器汰換，於2019/6/7完成驗收。,C0S720,
389,C0T9N0,富里,局屬自動站,261.0,121.249378,23.171639,花蓮縣,富里鄉永安街52號(富里國小),2019-07-05,,,,
390,C0U520,雙連埤,局屬自動站,517.0,121.641303,24.753033,宜蘭縣,員山鄉雙連埤地區(需徒步20分鐘),2010-07-01,,原(C1U521)站因擴充為氣象站，於2010/7/1升級為(C0U520)站，於2017/12/26進行儀器汰換，於2018/3/23完成驗收。,C1U521,
391,C0U600,礁溪,局屬自動站,10.0,121.765608,24.817539,宜蘭縣,礁溪鄉礁溪路四段23號(礁溪國民中學教室後宿舍旁),1996-01-01,,本站於2017/11/9進行儀器汰換，於2018/3/23完成驗收。,,
392,C0U650,玉蘭,局屬自動站,442.0,121.587061,24.675286,宜蘭縣,大同鄉松羅村鹿場路11號(往松羅山頂瞭望亭旁),1996-01-01,,本站於2017/10/9進行儀器汰換，於2017/12/1完成驗收。,,
393,C0U710,太平山,局屬自動站,1942.0,121.525656,24.505486,宜蘭縣,大同鄉太平山93林班地(林務局路標22.3k處),1996-01-01,,本站於2017/12/13進行儀器汰換，於2018/3/23完成驗收。,,
394,C0U720,南山,局屬自動站,1260.0,121.38167,24.43742,宜蘭縣,大同鄉南山村4鄰埤南巷31-3號(南山國民小學內),2018-03-23,,原(C1U720)站因擴充為氣象站，於2018/3/23升級為(C0U720)站。,C1U720,
395,C0U750,龜山島,局屬自動站,398.0,121.953133,24.841667,宜蘭縣,頭城鎮龜山島山頂401高地觀景台,2002-09-13,,本站為觀光局所設，交由本局管理。本站於2017/11/24進行儀器汰換，於2018/3/23完成驗收。,,
396,C0U760,東澳,局屬自動站,22.0,121.83318,24.52196,宜蘭縣,南澳鄉東岳村蘇花路三段209號(東澳國小校園內),2004-06-01,,本站於2017/12/19進行儀器汰換，於2018/3/23完成驗收。,,
397,C0U770,南澳,局屬自動站,5.0,121.81022,24.44935,宜蘭縣,南澳鄉中央氣象局地震中心系統維護課之南澳地震站,2005-10-01,,本站於2017/10/27進行儀器汰換，於2017/12/1完成驗收。,,
398,C0U780,五結,局屬自動站,15.0,121.79794,24.68637,宜蘭縣,五結鄉五結中路二段88號(五結國小),2010-07-01,,本站於2017/10/13進行儀器汰換，於2017/12/1完成驗收。,,
399,C0U860,頭城,局屬自動站,5.0,121.8308,24.85323,宜蘭縣,頭城鎮協天路468號(中華電信頭城海纜站內),2017-12-01,,原(C1U860)站因移位升氣，於2017/12/1變更為(C0U860)站。,C1U860,
400,C0U870,大礁溪,局屬自動站,474.0,121.675047,24.791042,宜蘭縣,礁溪鄉二結村一鄰9-1號(國立宜蘭大學實驗林場),2017-12-01,,原(C1U610)站因移位升氣，於2017/12/1變更為(C0U870)站。,,
401,C0U880,北關,局屬自動站,2.0,121.8734,24.9072,宜蘭縣,頭城鎮濱海路三段(北關梗枋漁港北側路邊),2022-09-19,,原(C1U880)站因擴充為氣象站，於2022/9/19升級為(C0U880)站。,C1U880,
402,C0U890,三星,局屬自動站,116.0,121.65302,24.66812,宜蘭縣,三星鄉月眉街54號(三星國中),2017-12-01,,原(C1U660)站因移位升氣，於2017/12/1變更為(C0U890)站。,C1U660,
403,C0U900,內城,局屬自動站,63.0,121.68766,24.71813,宜蘭縣,員山鄉內城路545號(內城國民中小學),2017-12-01,,原(C1U630)站因移位升氣並更名，於2017/12/1變更為(C0U900)站。,C1U630,
404,C0U910,冬山,局屬自動站,17.0,121.7937,24.63373,宜蘭縣,冬山鄉冬山路98-5號(冬山消防分隊),2017-12-01,,原(C0U680)站因移位，於2017/12/1變更為(C0U910)站。,C0U680,
405,C0U940,羅東,局屬自動站,25.0,121.74934,24.68184,宜蘭縣,羅東鎮羅東運動公園南側(北成路二段停車場旁自行車道入口),2017-12-01,,,,
406,C0U950,鶯子嶺,局屬自動站,1012.0,121.79244,24.89754,宜蘭縣,頭城鎮鶯子嶺通信站區內,2017-12-01,,,,
407,C0U960,翠峰湖,局屬自動站,1885.0,121.608044,24.510856,宜蘭縣,大同鄉太平山翠峰湖停車場木棧道旁,2018-03-23,,,,
408,C0U970,大福,局屬自動站,7.0,121.81389,24.80064,宜蘭縣,壯圍鄉大福路一段62巷26號(大福國小),2017-12-01,,,,
409,C0U980,坪林石牌,局屬自動站,573.0,121.77396,24.86478,宜蘭縣,頭城鎮與新北市坪林區交界附近之國有林班地(位於坪林石牌附近山區),2017-12-01,,,,
410,C0U990,員山,局屬自動站,31.0,121.72247,24.74435,宜蘭縣,員山鄉員山村復興路39號(員山國小),2017-12-01,,,,
411,C0UA00,土場,局屬自動站,392.0,121.495333,24.576533,宜蘭縣,大同鄉土場,2018-03-23,,,,
412,C0UA10,鴛鴦湖,局屬自動站,1711.0,121.412228,24.590269,宜蘭縣,大同鄉100線林道約15K(太平山事業區32林班內，鴛鴦湖工作站旁空地),2018-03-23,,,,
413,C0UA20,多加屯,局屬自動站,2619.0,121.373189,24.368614,宜蘭縣,大同鄉南湖大山指標8.4K處(多加屯避難山屋附近),2017-12-28,,,,
414,C0UA30,白嶺,局屬自動站,1397.0,121.519031,24.527819,宜蘭縣,大同鄉太平山白嶺苗圃內,2018-03-23,,,,
415,C0UA40,西德山,局屬自動站,1121.0,121.752608,24.560647,宜蘭縣,南澳鄉安平坑林道(力霸產業道路)附近山區(南澳事業區28林班內),2018-05-09,,,,
416,C0UA50,西帽山,局屬自動站,808.0,121.802628,24.555361,宜蘭縣,南澳鄉台泥大白山運石道附近山區(羅東事業區96林班內),2018-05-09,,,,
417,C0UA60,樟樹山,局屬自動站,566.0,121.78325,24.41393,宜蘭縣,南澳鄉武塔村樟樹山附近山區,2018-03-23,,,,
418,C0UA70,桃源谷,局屬自動站,547.0,121.888875,24.962606,宜蘭縣,頭城鎮及新北市貢寮區交界之桃源谷附近空地,2018-03-23,,,,
419,C0UA80,大溪漁港,局屬自動站,10.0,121.902955,24.941801,宜蘭縣,頭城鎮大溪里濱海路5段492號(大溪安檢所樓頂),2022-03-09,,,,
420,C0UA90,石城,局屬自動站,5.0,121.951214,24.980444,宜蘭縣,頭城鎮石城路85號(石城執檢站樓頂),2022-03-09,,,,
421,C0UB00,淡江大學蘭陽校園,局屬自動站,379.0,121.730383,24.823239,宜蘭縣,礁溪鄉林尾路180號（淡江大學蘭陽校園內）,2022-01-05,,,,
422,C0UB10,蘇澳,局屬自動站,28.0,121.8571,24.5969,宜蘭縣,蘇澳鎮港區路1號6樓(蘇澳港行政大樓),2023-04-01,,原(467060)站於2023/04/01起變更站碼為(C0UB10)站。,467060,
423,C0UB20,壯圍,局屬自動站,30.0,121.8163,24.7359,宜蘭縣,壯圍鄉紅葉路69號,2022-12-26,,,,
424,C0V210,復興,局屬自動站,734.0,120.806089,23.222403,高雄市,桃源區復興里復興巷1鄰15號,2013-04-18,,原(C1V210)站因擴充為氣象站，於2013/4/18升級為(C0V210)站。,C1V210,
425,C0V250,甲仙,局屬自動站,298.0,120.591758,23.080106,高雄市,甲仙區(甲仙國民中學操場後方小山丘上),1992-05-01,,本站於2013/3/13進行儀器汰換，並於2013/4/18完成驗收。,,
426,C0V260,月眉,局屬自動站,126.0,120.539853,22.971003,高雄市,杉林區月眉里山仙路1號月眉農場,2013-08-01,,原(C1V260)站因擴充為氣象站，於2013/8/1升級為(C0V260)站。,C1V260,
427,C0V310,美濃,局屬自動站,46.0,120.519153,22.898742,高雄市,美濃區福安里中山路二段204巷65號(美濃區福安國小後方),1992-05-01,,本站於 2013/6/15 進行儀器汰換，並於2013/8/1完成驗收。,,
428,C0V350,溪埔,局屬自動站,36.0,120.446797,22.738578,高雄市,大樹區溪埔里之台29線近83K處,2013-12-01,,原(C1V350)站因擴充為氣象站，於2013/12/1升級為(C0V350)站。,C1V350,
429,C0V360,內門,局屬自動站,94.0,120.466769,22.975481,高雄市,內門區木柵里木柵3號（木柵國民小學）,2013-12-01,,原(C1V360)站因擴充為氣象站，於2013/12/1升級為(C0V360)站。,C1V360,
430,C0V370,古亭坑,局屬自動站,74.0,120.401947,22.893178,高雄市,田寮區古亭里,1992-05-01,,本站因儀器汰換，自2013/8/31起暫停資料提供，並於2013/12/1完成驗收。,,
431,C0V400,阿公店,局屬自動站,56.0,120.355528,22.804194,高雄市,燕巢區西燕里工程路1號（阿公店水庫內）,2013-12-01,,原(C1V400)站因擴充為氣象站，於2013/12/1升級為(C0V400)站。,C1V400,
432,C0V440,鳳山,局屬自動站,27.0,120.356122,22.646653,高雄市,鳳山區文山路園藝巷4號（鳳山熱帶園藝試驗分所）,2013-12-01,,原(C1V440)站因移位及擴充為氣象，於2013/12/1升級為(C0V440)站。,C1V440,
433,C0V450,鳳森,局屬自動站,51.0,120.392592,22.545064,高雄市,小港區水庫段96-1地號（鳳山給水廠內）,2013-12-01,,原(C1V451)站因擴充為氣象站，於2013/12/1升級為(C0V450)站。,C1V451,
434,C0V490,新興,局屬自動站,20.0,120.298803,22.627422,高雄市,新興區大同一路231號(大同國小內5樓頂),2009-12-01,,本站於2013/9/12起進行儀器汰換，並於2013/12/1完成驗收。,,
435,C0V530,阿蓮,局屬自動站,34.0,120.327508,22.883208,高雄市,阿蓮區阿蓮里民生路94號(阿蓮區公所),2013-08-01,,原(C1V530)站因擴充為氣象站，於2013/8/1升級為(C0V530)站。,C1V530,
436,C0V610,梓官,局屬自動站,22.0,120.267211,22.760558,高雄市,梓官區梓官路258號(梓官區公所),2013-12-01,,,,
437,C0V620,永安,局屬自動站,18.0,120.236856,22.82315,高雄市,永安區永安路32號(永安消防分隊),2013-12-01,,,,
438,C0V630,茄萣,局屬自動站,19.0,120.182608,22.906642,高雄市,茄萣區濱海路四段27號(茄萣區公所),2013-12-01,,,,
439,C0V640,湖內,局屬自動站,35.0,120.2445,22.887139,高雄市,湖內區中山路一段290之1號(湖街派出所),2013-12-01,,,,
440,C0V650,彌陀,局屬自動站,28.0,120.246361,22.783806,高雄市,彌陀區中正北路7號(彌陀消防分隊),2013-12-01,,,,
441,C0V660,岡山,局屬自動站,25.0,120.294958,22.797078,高雄市,岡山區岡山路341號(岡山地政事務所),2013-12-01,,,,
442,C0V680,仁武,局屬自動站,40.0,120.347722,22.701083,高雄市,仁武區中正路133號(仁武區公所),2013-12-01,,,,
443,C0V690,鼓山,局屬自動站,30.0,120.275575,22.623325,高雄市,鼓山區臨海一路61-1號(鼓山消防分隊),2013-12-01,,,,
444,C0V700,三民,局屬自動站,24.0,120.311233,22.645017,高雄市,三民區十全一路88號(十全消防分隊),2013-12-01,,,,
445,C0V710,苓雅,局屬自動站,34.0,120.330669,22.622742,高雄市,苓雅區三多一路162號(苓雅消防分隊),2013-12-01,,,,
446,C0V720,林園,局屬自動站,15.0,120.394511,22.507747,高雄市,林園區林園北路179號(林園區公所),2013-08-01,,,,
447,C0V730,大寮,局屬自動站,33.0,120.395717,22.605614,高雄市,大寮區鳳林三路492號(大寮區公所),2013-08-01,,,,
448,C0V740,旗山,局屬自動站,60.0,120.483597,22.888614,高雄市,旗山區延平一路499號(旗山區公所),2013-08-01,,,,
449,C0V750,路竹,局屬自動站,50.0,120.259439,22.854997,高雄市,路竹區國昌路76號(路竹區公所),2013-12-01,,,,
450,C0V760,橋頭,局屬自動站,30.0,120.30575,22.757806,高雄市,橋頭區隆豐路1號(橋頭區公所),2013-12-01,,,,
451,C0V770,大社,局屬自動站,26.0,120.346639,22.730306,高雄市,大社區自強街1號(大社區公所),2013-12-01,,,,
452,C0V790,萬山,局屬自動站,410.0,120.688056,22.905944,高雄市,茂林區萬山段710地號,2013-12-01,,,,
453,C0V800,六龜,局屬自動站,256.0,120.633583,22.997889,高雄市,六龜區民治路9號(六龜消防隊),2013-12-01,,,,
454,C0V810,左營,局屬自動站,32.0,120.28491,22.67491,高雄市,左營區左營大路1號(高雄市立海青高級工商職業學校資訊大樓樓頂),2015-09-21,,,,
455,C0V820,小林,局屬自動站,441.0,120.63325,23.148408,高雄市,甲仙區五里路24-2號（小林國小）,2018-12-20,,,,
456,C0V840,鳳鼻頭,局屬自動站,35.0,120.3591,22.5083,高雄市,小港區南星路107號,2022-12-26,,,,
457,C0V850,蚵仔寮,局屬自動站,22.0,120.2527,22.7256,高雄市,梓官區信蚵里廣澤路100號,2022-12-26,,,,
458,C0V860,南寮,局屬自動站,10.0,120.2339,22.7616,高雄市,彌陀區南寮里漁港1街62號,2022-12-26,,,,
459,C0V870,文安,局屬自動站,23.0,120.2164,22.8025,高雄市,彌陀區舊港橫路87號,2022-12-26,,,,
460,C0V880,興達,局屬自動站,19.0,120.2127,22.8778,高雄市,茄萣區順漁路100號,2022-12-26,,,,
461,C0V890,前鎮,局屬自動站,25.0,120.3117,22.5718,高雄市,前鎮區漁港北二路5號,2022-12-26,,,,
462,C0V900,汕尾,局屬自動站,6.0,120.4151,22.4782,高雄市,林園區,2022-12-26,,,,
463,C0W110,東莒,局屬自動站,16.0,119.98069,25.9652,連江縣,莒光鄉福正村1號(福正抽水機房，莒光遊客中心後方),2016-07-01,,,,
464,C0W120,西嶼,局屬自動站,58.0,119.468436,23.5626,澎湖縣,西嶼鄉195號(西嶼燈塔西方),2016-07-01,,,,
465,C0W130,花嶼,局屬自動站,18.0,119.32276,23.40007,澎湖縣,望安鄉花嶼村2號(花嶼國民小學),2016-07-01,,,,
466,C0W140,金沙,局屬自動站,21.0,118.408778,24.488292,金門縣,金沙鎮環島北路四段465號(金門縣自來水廠榮湖淨水場),2016-10-05,,,,
467,C0W150,金寧,局屬自動站,42.0,118.328989,24.457703,金門縣,金寧鄉頂林路315號(金門縣消防局),2016-10-05,,,,
468,C0W160,烏坵,局屬自動站,49.0,119.44956,24.9944,金門縣,烏坵鄉,2016-10-05,,,,
469,C0X050,東河,局屬自動站,25.0,120.385608,23.296598,臺南市,東山區東河里54號(東河水利工作站),2015-07-03,,原(C1X050)站因擴充為氣象站及移位，於2015/7/1升級為(C0X050)站。,C1X050,
470,C0X060,下營,局屬自動站,19.0,120.256261,23.22695,臺南市,下營區仁里里下營國小附近,2015-07-03,,原(C1X060)站因擴充為氣象站，於2015/7/1升級為(C0X060)站。,C1X060,
471,C0X080,佳里,局屬自動站,2.0,120.145086,23.173039,臺南市,佳里區西方之埔尾，近七股區之篤加,1993-03-01,,本站於2015/5/11起進行儀器汰換，並於2015/7/1完成驗收。,,
472,C0X100,臺南市北區,局屬自動站,10.0,120.194228,23.010394,臺南市,北區文賢路678號(和緯消防分隊),2013-04-18,,,,
473,C0X110,臺南市南區,局屬自動站,20.0,120.188378,22.961189,臺南市,南區明興路2號(南區區公所),2013-04-18,,,,
474,C0X120,麻豆,局屬自動站,28.0,120.248611,23.183289,臺南市,麻豆區興國路9號(麻豆消防分隊5樓頂),2013-04-18,,,,
475,C0X130,官田,局屬自動站,27.0,120.315422,23.193217,臺南市,官田區中山路一段132號(官田區公所),2013-04-18,,,,
476,C0X140,西港,局屬自動站,17.0,120.203108,23.125608,臺南市,西港區中山路450號(西港消防分隊4樓頂),2013-04-18,,,,
477,C0X150,安定,局屬自動站,18.0,120.227839,23.102614,臺南市,安定區南安里33-11號(安定消防分隊),2013-04-18,,,,
478,C0X160,仁德,局屬自動站,26.0,120.257689,22.968258,臺南市,仁德區仁義路432號(仁德消防分隊),2013-04-18,,,,
479,C0X170,關廟,局屬自動站,50.0,120.327797,22.963017,臺南市,關廟區中正路998號(關廟區公所3樓頂),2013-08-01,,,,
480,C0X180,山上,局屬自動站,62.0,120.363253,23.0757,臺南市,山上區豐德里隙子口5之1號(中油豐德供油中心2樓頂),2013-04-18,,,,
481,C0X190,安平,局屬自動站,10.0,120.152181,22.993161,臺南市,安平區城平路2號(台江國家公園管理處),2013-04-18,,,,
482,C0X200,左鎮,局屬自動站,61.0,120.408522,23.056758,臺南市,左鎮區中正里171號之4(左鎮區公所),2013-04-18,,2016/10/18因公所施工暫時無法提供資料，2017/1/24完工。,,
483,C0X210,白河,局屬自動站,38.0,120.414427,23.347466,臺南市,白河區中山路6號(白河消防分隊),2015-07-03,,,,
484,C0X220,學甲,局屬自動站,26.0,120.182187,23.230367,臺南市,學甲區華宗路313號(學甲區公所),2015-07-03,,,,
485,C0X230,鹽水,局屬自動站,29.0,120.247641,23.272621,臺南市,鹽水區竹埔里1號(竹埔派出所),2015-07-03,,,,
486,C0X240,關子嶺,局屬自動站,394.0,120.508025,23.331169,臺南市,白河區關嶺里94-3號(仙草國小關嶺分校),2015-07-03,,於2015/12/8短距離移位。本站於2015/11/23起進行儀器汰換，並於2015/12/8完成驗收。,,
487,C0X250,新營,局屬自動站,33.0,120.316681,23.310689,臺南市,新營區中正路30號(南瀛親子館),2015-07-03,,,,
488,C0X260,後壁,局屬自動站,39.0,120.362326,23.366358,臺南市,後壁區後壁里129號(後壁圖書館),2015-07-03,,,,
489,C0X280,將軍,局屬自動站,22.0,120.13577,23.214999,臺南市,將軍區將貴里58號(將軍國小),2015-07-03,,,,
490,C0X290,北門,局屬自動站,10.0,120.125481,23.267772,臺南市,北門區北門里舊埕108號(北門區公所),2016-01-01,,,,
491,C0X300,鹿寮,局屬自動站,70.0,120.477331,23.386047,臺南市,白河區崎內里12號(鹿寮水庫),2016-01-01,,,,
492,C0X310,七股,局屬自動站,9.0,120.086253,23.147289,臺南市,七股區鹽埕237-11號(氣象局七股雷達站區內),2016-02-01,,,,
493,C0X320,柳營,局屬自動站,30.0,120.375253,23.253328,臺南市,臺南市柳營區國道3號北上324.7K處,2020-02-05,,,,
494,C0Z020,明里,局屬自動站,211.0,121.262342,23.208717,花蓮縣,富里鄉明里村明里社區後方山上,2010-07-01,,原(C1Z020)站因擴充為氣象站，於2010/7/1升級為(C0Z020)站。本站於2017/8/29起進行儀器汰換，於2017/12/1完成驗收。,C1Z020,
495,C0Z050,佳心,局屬自動站,824.0,121.21316,23.34567,花蓮縣,卓溪鄉佳心(玉山國家公園內，距花蓮卓溪鄉南安遊客步行2.5時之日據時代派出所舊址),1997-07-01,,本站於2017/9/3起進行儀器汰換，於2017/12/1完成驗收。,,
496,C0Z061,玉里,局屬自動站,174.0,121.339656,23.3215,花蓮縣,玉里鎮樂合里新民41號(樂合國小),2008-02-20,,原(C0Z060)站因移位，於2008/2/20更變為(C0Z061)站。本站於2017/8/17起進行儀器汰換，於2017/12/1完成驗收。,C0Z060,
497,C0Z070,舞鶴,局屬自動站,247.0,121.37407,23.46811,花蓮縣,瑞穗鄉舞鶴村加納納山三角點旁,1997-07-01,,本站於2017/6/21起進行儀器汰換，於2017/12/1完成驗收。,,
498,C0Z080,富源,局屬自動站,298.0,121.378225,23.587642,花蓮縣,光復鄉大豐村9鄰265號(富源國中對面之半山腰上),2012-01-01,,本站於2017/6/19起進行儀器汰換，於2017/12/1完成驗收。,,
499,C0Z100,東華,局屬自動站,36.0,121.549833,23.89525,花蓮縣,壽豐鄉大學路二段1號（國立東華大學）,2014-01-01,,本站於2017/3/29起進行儀器汰換，於2017/6/3完成驗收。,,
500,C0Z150,吉安光華,局屬自動站,27.0,121.595153,23.930925,花蓮縣,吉安鄉南濱路一段531號(水資源回收中心),2017-06-03,,,,
501,C0Z160,鳳林,局屬自動站,124.0,121.453411,23.746114,花蓮縣,鳳林鎮信義路200號(鳳林地政事務所),2017-06-03,,原(C1T930)站因移位及升級，於2017/6/3升級為(C0Z120)站。,C1T930,
502,C0Z170,卓溪,局屬自動站,194.0,121.3029,23.3443,花蓮縣,卓溪鄉卓溪村中正67號(花蓮縣卓溪鄉公所樓頂),2022-12-20,,原(C1Z010)站因移位升級，於2017/12/1變更為(C0Z170)站。 2022/11/22舊站遷移(舊地址為卓溪鄉卓溪村中正路65-5號)，站碼不變，並於2022/12/20開始接續提供資料。,C1Z010,
503,C0Z180,新城,局屬自動站,34.0,121.60454,24.03946,花蓮縣,新城鄉大漢村光復路570號(新城鄉公所),2017-12-01,,原(C0T841)站因移位，於2017/12/1更變為(C0Z180)站。,C0T841,
504,C0Z190,富世,局屬自動站,62.0,121.6297,24.14743,花蓮縣,秀林鄉富世村127號(富世國小校園內),2017-12-01,,原(C0T9C0)站因移位，於2017/12/1變更為(C0Z190)站。,C0T9C,
505,C0Z200,萬榮,局屬自動站,153.0,121.420106,23.709219,花蓮縣,鳳林鎮長橋里長橋路2號(長橋國小),2017-06-03,,,,
506,C0Z210,瑞穗,局屬自動站,126.0,121.39021,23.5239,花蓮縣,瑞穗鄉鶴岡村167號(鶴岡國小),2017-12-01,,,,
507,C0Z220,和平林道,局屬自動站,589.0,121.656317,24.343922,花蓮縣,秀林鄉臺電公司東部發電廠碧海機組廠區內(進入管制哨約7公里處),2018-03-23,,,,
508,C0Z230,和平,局屬自動站,31.0,121.77007,24.30717,花蓮縣,秀林鄉克來寶段399地號(和平工業港安檢所綠洲分隊),2017-12-01,,,,
509,C0Z250,瑞穗林道,局屬自動站,1124.0,121.30688,23.49284,花蓮縣,卓溪鄉瑞穗林道約7.5K瑞欣礦區下方空地,2017-12-01,,,,
510,C0Z270,蕃薯寮,局屬自動站,343.0,121.540108,23.73835,花蓮縣,壽豐鄉水璉村蕃薯寮附近山區道路旁(牛山段607地號內),2017-06-03,,,,
511,C0Z280,德武,局屬自動站,224.0,121.41071,23.47426,花蓮縣,玉里鎮德武里附近山區道路旁(德武段680地號內),2017-12-01,,,,
512,C0Z290,赤柯山,局屬自動站,946.0,121.38293,23.36893,花蓮縣,玉里鎮赤柯山段338地號,2017-12-01,,,,
513,C0Z300,東里,局屬自動站,182.0,121.30547,23.26853,花蓮縣,富里鄉東里村大莊路52號(東里消防分隊),2017-12-01,,,,
514,C0Z310,清水斷崖,局屬自動站,59.0,121.689142,24.218294,花蓮縣,秀林鄉臺9線大清水遊憩區下方空地,2018-03-23,,,,
515,C0Z320,清水林道,局屬自動站,646.0,121.188272,23.27125,花蓮縣,卓溪鄉清水林道北側山區(新生段1地號),2018-05-09,,,,
516,C0Z330,安通山,局屬自動站,488.0,121.348528,23.290728,花蓮縣,玉里鎮安通產業道路附近山區,2018-05-09,,,,
517,C1A630,下盆,局屬自動站,527.0,121.538622,24.771003,新北市,烏來區東勢溪中游(步行一小時),1987-06-01,,,,
518,C1A750,石碇服務區,局屬自動站,92.0,121.646242,25.00872,新北市,新北市石碇區文山路一段2號,2021-10-02,,,,
519,C1A760,坪林交控,局屬自動站,217.0,121.713442,24.94284,新北市,新北市坪林區坪雙路一段52號,2021-10-02,,,,
520,C1A9N0,四十份,局屬自動站,435.0,121.593283,24.934158,新北市,新店區北宜路旁(文山事業區第四林班),2000-06-01,,,,
521,C1AC50,關渡,局屬自動站,111.0,121.469331,25.133486,臺北市,北投區學園路2號(臺北城市科技大學校園內5樓頂),1992-05-20,,原(C1A970)站因與三貂角氣象站(C0A970)重複編號，於2008/2/25起變更站碼為(C1AC50)。2009/2/18～2009/2/19原址儀器汰換，原站址位於校園內，汰換後移至樓頂。,C1A970,
522,C1AI50,國三N016K,局屬自動站,64.0,121.619664,25.034164,臺北市,國道3號北向16.51K,2021-01-26,,,,
523,C1AI60,國一N039K,局屬自動站,181.0,121.383836,25.064361,新北市,國道1號北向39.32K,2021-01-26,,,,
524,C1C510,水尾,局屬自動站,106.0,121.087161,24.940081,桃園市,楊梅區豐野里1鄰151號(富崗水尾工作站內),1987-06-01,,,,
525,C1D380,新埔,局屬自動站,65.0,121.03834,24.84745,新竹縣,新埔鎮下寮里43號義民廟右方路旁,1987-06-01,,,,
526,C1D400,鳥嘴山,局屬自動站,839.0,121.28387,24.71909,新竹縣,尖石鄉新樂村復興礦場,1987-06-01,,,,
527,C1D410,白蘭,局屬自動站,1290.0,121.079947,24.579364,新竹縣,五峰鄉桃山村,1987-06-01,,,,
528,C1D420,太閣南,局屬自動站,1279.0,121.160575,24.632808,新竹縣,五峰鄉羅山工作站後方山頂羅山瞭望台旁,1987-06-01,,,,
529,C1D630,飛鳳山,局屬自動站,462.0,121.119178,24.766464,新竹縣,芎林鄉王爺坑段83-7號地,2011-12-01,,,,
530,C1D640,外坪(五指山),局屬自動站,718.0,121.090961,24.644447,新竹縣,北埔鄉大坪段內大坪小段36-54號地,2011-12-01,,原名為外坪，於2016/4/26更名為外坪(五指山)。,,
531,C1E451,象鼻,局屬自動站,950.0,120.940228,24.368617,苗栗縣,泰安鄉象鼻村,2011-11-01,,原(C1E450)站因儀器汰換，於2011/11/1更變為(C1E451)站。,C1E450,
532,C1E461,松安,局屬自動站,1325.0,120.986022,24.397972,苗栗縣,泰安鄉雪霸國家公園二本松解說站旁,2011-11-01,,原(C1E460)站因儀器汰換，於2011/11/1更變為(C1E461)站。,C1E460,
533,C1E480,鳳美,局屬自動站,576.0,121.034747,24.554803,苗栗縣,南庄鄉東河村24鄰石門1號(南庄往鹿場途中),1990-07-21,,,,
534,C1E511,新開,局屬自動站,326.0,120.827019,24.347703,苗栗縣,大湖鄉新開村新開4鄰20號旁,2011-11-01,,原(C1E510)站因儀器汰換，於2011/11/1更變為(C1E511)站。,C1E510,
535,C1E601,南勢,局屬自動站,125.0,120.734842,24.572486,苗栗縣,後龍鎮南港里南勢山,2011-11-01,,原(C1E600)站因儀器汰換，於2011/11/1更變為(C1E601)站。,C1E600,
536,C1E670,南礦,局屬自動站,1209.0,121.002836,24.538278,苗栗縣,南庄鄉蓬萊林道末端(南庄事業區18林班地),2002-08-01,,,,
537,C1E681,南勢山,局屬自動站,977.0,120.923831,24.421669,苗栗縣,泰安鄉大興村(從泰安國小進入站址車程約10分鐘),2011-11-01,,原(C1E680)站因儀器汰換，於2011/11/1更變為(C1E681)站。,C1E680,
538,C1E691,南湖,局屬自動站,786.0,120.837533,24.40135,苗栗縣,大湖鄉(位於南湖台3線135k處之吊樑道山上),2011-11-01,,原(C1E690)站因儀器汰換，於2011/11/1更變為(C1E691)站。,C1E690,
539,C1E701,八卦,局屬自動站,737.0,120.927619,24.491756,苗栗縣,泰安鄉(與八卦派出所相距約1.2k處),2011-11-01,,原(C1E700)站因儀器汰換，於2011/11/1更變為(C1E701)站。,C1E700,
540,C1E711,馬拉邦山,局屬自動站,990.0,120.901656,24.367306,苗栗縣,大湖鄉東興村(馬拉邦山登山口),2011-11-01,,原(C1E710)站因儀器汰換，於2011/11/1更變為(C1E711)站。,C1E710,
541,C1E721,泰安,局屬自動站,1409.0,120.968036,24.489017,苗栗縣,泰安鄉橫龍古道上(走路約5分鐘)之大湖事業區18林班地,2011-11-01,,原(C1E720)站因儀器汰換，於2011/11/1更變為(C1E721)站。,C1E720,
542,C1E770,公館,局屬自動站,83.0,120.830806,24.526914,苗栗縣,公館鄉鶴岡村178號(鶴岡國中),2011-11-01,,,,
543,C1E890,國三N149K,局屬自動站,53.0,120.680019,24.463414,苗栗縣,國道3號北向149K,2021-01-26,,,,
544,C1E900,國一N128K,局屬自動站,80.0,120.844186,24.560997,苗栗縣,國道1號北向128K,2021-10-02,,,,
545,C1F871,上谷關,局屬自動站,1000.0,121.018644,24.203483,臺中市,和平區(博愛國小谷關分校附近),2011-11-01,,原(C1F870)站因儀器汰換，於2011/11/1更變為(C1F871)站。,C1F870,
546,C1F891,稍來,局屬自動站,2205.0,121.001142,24.265689,臺中市,和平區八仙山事業區49林班地船型山苗圃廢棄觀測坪附近,2011-11-01,,原(C1F890)站因儀器汰換，於2011/11/1更變為(C1F891)站。,C1F890,
547,C1F911,新伯公,局屬自動站,417.0,120.841069,24.221361,臺中市,東勢區詒福段163地號(台電公司門前右前方),2011-11-01,,原(C1F910)站因儀器汰換，於2011/11/1更變為(C1F911)站。,C1F910,
548,C1F941,雪嶺,局屬自動站,2620.0,121.026642,24.280586,臺中市,和平區雪嶺地區八仙山事業區60林班地小雪山莊後方水塔後山頂,2011-11-01,,原(C1F940)站因儀器汰換，於2011/11/1更變為(C1F941)站。,C1F940,
549,C1F9B1,桐林,局屬自動站,130.0,120.735194,24.066172,臺中市,霧峰區桐林里民生路(桐林國小斜對面),2011-11-01,,原(C1F9B0)站因儀器汰換，於2011/11/1更變為(C1F9B1)站。,C1F9B0,
550,C1F9C1,白冷,局屬自動站,610.0,120.929889,24.182844,臺中市,和平區天輪里天輪巷42號(臺中市和平區白冷國民小學校園內),2011-11-01,,原(C1F9C0)站因儀器汰換，於2011/11/1更變為(C1F9C1)站。,C1F9C0,
551,C1F9D1,白毛台,局屬自動站,639.0,120.886933,24.158325,臺中市,新社區福興里福民路13號旁,2011-11-01,,原(C1F9D0)站因儀器汰換，於2011/11/1更變為(C1F9D1)站。,C1F9D0,
552,C1F9E1,龍安,局屬自動站,563.0,120.831961,24.1605,臺中市,新社區中和里內(距龍安橋約1.2k處),2011-11-01,,原(C1F9E0)站因儀器汰換，於2011/11/1更變為(C1F9E1)站。,C1F9E0,
553,C1F9F1,伯公龍,局屬自動站,500.0,120.849047,24.272392,臺中市,東勢區勢林街(宏覺寺旁),2011-11-01,,原(C1F9F0)站因儀器汰換，於2011/11/1更變為(C1F9F1)站。,C1F9F0,
554,C1F9G1,慶福山,局屬自動站,810.0,120.848378,24.180853,臺中市,東勢區(台8線10.5k往馬鞍農場方向.車程約半小時),2011-11-01,,原(C1F9G0)站因儀器汰換，於2011/11/1更變為(C1F9G1)站。,C1F9G0,
555,C1F9J1,清水林,局屬自動站,723.0,120.820419,24.071242,臺中市,太平區136縣道9.5k處旁約500公尺,2011-11-01,,原(C1F9J0)站因儀器汰換，於2011/11/1更變為(C1F9J1)站。,C1F9J0,
556,C1F9W0,德基,局屬自動站,1970.0,121.190261,24.254783,臺中市,和平區台8甲線69-70k處，彎入勝利路接翠巒產業道路約6.2km，路邊白色水塔旁,2011-11-01,,,,
557,C1G691,下水埔,局屬自動站,110.0,120.5676,23.816114,彰化縣,溪州鄉大莊國小(大庄村中橫巷1號),2011-10-06,,本站於2015/4/1起進行儀器汰換，並於2015/7/1完成驗收。,C1G690,
558,C1G9D0,國一S218K,局屬自動站,30.0,120.493253,23.890641,彰化縣,國道1號南向218.3K,2021-10-02,,,,
559,C1H000,翠峰,局屬自動站,2454.0,121.205211,24.109397,南投縣,仁愛鄉翠峰段30地號東側旁(臺14甲線19-19.5k處的長途通信機房旁),1992-07-01,,本站於2015/7/27起進行儀器汰換，並於2015/12/31完成驗收。,,
560,C1H840,國三N238K,局屬自動站,231.0,120.707711,23.841008,南投縣,國道3號北向238.2K,2021-10-02,,,,
561,C1H860,瑞岩,局屬自動站,1840.0,121.18345,24.123772,南投縣,仁愛鄉,1992-05-01,,本站於2015/7/29起進行儀器汰換，並於2015/12/31完成驗收。,,
562,C1H900,清流,局屬自動站,934.0,120.962997,24.080775,南投縣,仁愛鄉互助村,1992-05-01,,本站於2015/7/24起進行儀器汰換，並於2015/12/31完成驗收。,,
563,C1H920,長豐,局屬自動站,736.0,120.879897,24.102039,南投縣,國姓鄉長豐村東二巷71號(仙徠山莊內),1992-05-01,,原名為長福，於2015/9/1更名為長豐。本站於2015/9/1起進行儀器汰換，並於2015/12/31完成驗收。,,
564,C1H941,雙冬,局屬自動站,630.0,120.802189,23.967378,南投縣,草屯鎮雙冬里,2011-11-01,,原(C1H940)站因儀器汰換，於2011/11/1更變為(C1H941)站。,C1H940,
565,C1H971,六分寮,局屬自動站,428.0,120.6378,23.92507,南投縣,南投市鳳鳴里八卦路831號(南投縣政府消防局第一大隊鳳鳴分隊),2011-11-01,,原(C1H970)站因儀器汰換，於2011/11/1更變為(C1H971)站。2017/3/1短距離移位施工。原址為鳳鳴里八卦路894號(西嶺國小校門口對面)，2017/4/1啟用,C1H970,
566,C1H9B1,阿眉,局屬自動站,1710.0,120.994672,24.1263,南投縣,仁愛鄉(水利局雨量站旁),2011-11-01,,原(C1H9B0)站因儀器汰換，於2011/11/1更變為(C1H9B1)站。,C1H9B0,
567,C1I020,萬大,局屬自動站,1120.0,121.132261,23.979817,南投縣,仁愛鄉親愛村萬大水庫宿舍旁,1992-07-01,,本站於2015/8/11起進行儀器汰換，並於2015/12/31完成驗收。,,
568,C1I030,武界,局屬自動站,948.0,121.052483,23.913225,南投縣,仁愛鄉法治村,1992-07-01,,本站於2015/8/14起進行儀器汰換，並於2015/12/31完成驗收。,,
569,C1I050,丹大,局屬自動站,2568.0,121.141147,23.753747,南投縣,信義鄉丹大事業區第十七林班地(瞭望台旁),1992-07-01,,自2006年起，設備不再維護，暫時停止觀測。本站於2015/3/28起進行儀器汰換，並於2015/7/1完成驗收。,,
570,C1I070,和社,局屬自動站,825.0,120.888861,23.591131,南投縣,信義鄉中橫同富村同和巷47號和社分社觀測坪內,1992-07-01,,本站於2015/9/14起進行儀器汰換，並於2015/12/31完成驗收。,,
571,C1I101,溪頭,局屬自動站,1810.0,120.807647,23.661789,南投縣,鹿谷鄉內湖村森林巷溪頭林營區(鳳凰山瞭望台旁),2011-11-01,,原(C1I100)站因儀器汰換，於2011/11/1更變為(C1I101)站。,C1I100,
572,C1I121,大鞍,局屬自動站,1515.0,120.760017,23.678381,南投縣,竹山鎮樟空倫山之三角點附近,2011-11-01,,原(C1I120)站因儀器汰換，於2011/11/1更變為(C1I121)站。,C1I120,
573,C1I131,桶頭,局屬自動站,311.0,120.654117,23.641944,南投縣,竹山鎮鯉南路338號旁,2011-11-01,,原(C1I130)站因儀器汰換，於2011/11/1更變為(C1I131)站。,C1I130,
574,C1I140,卡奈托灣,局屬自動站,1700.0,121.087872,23.754364,南投縣,信義鄉丹大事業區第16林班地,1993-03-01,,本站於2015/4/1起進行儀器汰換，並於2015/7/1完成驗收。,,
575,C1I150,青雲,局屬自動站,393.0,120.949378,23.793361,南投縣,信義鄉地利村5鄰開信巷98-3號旁,1993-03-01,,本站於2015/9/11起進行儀器汰換，並於2015/12/31完成驗收。,,
576,C1I201,中心崙,局屬自動站,677.0,120.712097,23.728722,南投縣,竹山鎮之中心崙林道4.1km處,2011-11-01,,原(C1I200)站因儀器汰換，於2011/11/1更變為(C1I201)站。,C1I200,
577,C1I211,蘆竹湳,局屬自動站,529.0,120.811994,23.934019,南投縣,中寮鄉清水村龍林巷4鄰58之6號旁,2011-11-01,,原(C1I210)站因儀器汰換，於2011/11/1更變為(C1I211)站。,C1I210,
578,C1I220,樟湖,局屬自動站,1098.0,120.846983,23.905333,南投縣,國姓鄉147縣道9km處與站址直線距離約1.6km,2002-08-01,,本站於2015/9/8起進行儀器汰換，並於2015/12/31完成驗收。,,
579,C1I230,九份二山,局屬自動站,837.0,120.845,23.961944,南投縣,國姓鄉南港村九份二山上(921地震紀念公園內),2002-08-01,,更正座標。本站於2015/7/23起進行儀器汰換，並於2015/12/31完成驗收。,,
580,C1I240,外大坪,局屬自動站,725.0,120.917931,23.958697,南投縣,埔里鎮種瓜路(投68)路口至站址車程約20分鐘,2002-08-01,,本站於2015/7/20起進行儀器汰換，並於2015/12/31完成驗收。,,
581,C1I250,鯉潭,局屬自動站,732.0,120.991131,23.961922,南投縣,埔里鎮埔里高工旁中心路2km處,2002-08-01,,原名為埔里，於2015/8/17更名為鯉潭。本站於2015/8/17起進行儀器汰換，並於2015/12/31完成驗收。,,
582,C1I260,北坑,局屬自動站,601.0,121.006903,23.9246,南投縣,埔里鎮麒麟里4鄰武界路31號旁,2002-08-01,,本站於2015/8/7起進行儀器汰換，並於2015/12/31完成驗收。,,
583,C1I280,埔中,局屬自動站,439.0,120.642594,23.820778,南投縣,名間鄉埔中村11之3號後面,2002-08-01,,本站於2015/9/9起進行儀器汰換，並於2015/12/31完成驗收。,,
584,C1I290,豐丘,局屬自動站,1151.0,120.887417,23.668178,南投縣,信義鄉豐丘村豐丘產業道路末端,2002-08-01,,本站於2015/9/17起進行儀器汰換，並於2015/12/31完成驗收。,,
585,C1I310,西巒,局屬自動站,1033.0,120.883956,23.754486,南投縣,信義鄉台21線道之人倫林道9.5k處,2002-08-01,,更正座標。本站於2015/8/21起進行儀器汰換，並於2015/12/31完成驗收。,,
586,C1I320,奧萬大,局屬自動站,1275.0,121.178556,23.952956,南投縣,仁愛鄉奧萬大森林遊樂區內(員工宿舍),2002-08-01,,短距離移位。本站於2015/8/19起進行儀器汰換，並於2015/12/31完成驗收。,,
587,C1I330,楓樹林,局屬自動站,1266.0,121.076117,23.986803,南投縣,仁愛鄉埔里事業區107林班地(臺14線近埔里市區),2002-08-01,,本站於2015/8/3起進行儀器汰換，並於2015/12/31完成驗收。,,
588,C1I340,新興橋,局屬自動站,897.0,120.868728,23.563333,南投縣,信義鄉臺21線新興橋附近,2002-08-01,,本站於2015/9/15起進行儀器汰換，並於2015/12/31完成驗收。,,
589,C1I400,凌霄,局屬自動站,1399.0,121.004456,24.018778,南投縣,仁愛鄉守城段4地號,2016-01-01,,,,
590,C1I430,翠華,局屬自動站,2415.0,121.224339,24.191961,南投縣,仁愛鄉翠華村華岡段70地號內,2016-01-01,,,,
591,C1I440,新高口,局屬自動站,2540.0,120.878939,23.478744,南投縣,信義鄉新高口(臺18線約107.5k處路旁，對高岳營林區第31林班446號林地內),1992-05-01,,原(C1M440)站因縣市代碼不符，於2015/4/13重新編碼為(C1I440)站。本站於2015/10/2起進行儀器汰換，並於2015/12/31完成驗收。,C1M440,
592,C1I450,望鄉山,局屬自動站,3025.0,120.944286,23.594153,南投縣,信義鄉巒大事業區第131林班內(郡大林道約32K附近，望鄉山三角點旁),2016-01-01,,,,
593,C1I470,杉林溪,局屬自動站,1680.0,120.786444,23.639517,南投縣,竹山鎮大鞍里(杉林溪森林生態渡假園區收費亭附近，向欣谷碑旁),2016-01-01,,,,
594,C1I500,大尖山,局屬自動站,2017.0,120.994889,23.858572,南投縣,仁愛鄉大尖山,2016-01-01,,,,
595,C1I510,線浸林道,局屬自動站,1208.0,120.832956,23.761508,南投縣,鹿谷鄉線浸林道11k附近,2016-01-01,,,,
596,C1I550,國六W023K,局屬自動站,373.0,120.867742,23.979067,南投縣,國道6號西向23.7K,2021-01-26,,,,
597,C1K540,口湖,局屬自動站,15.0,120.180517,23.585344,雲林縣,口湖鄉口湖村中正路一段280號(口湖消防分隊),2016-01-01,,,,
598,C1M390,龍美,局屬自動站,1090.0,120.654417,23.406728,嘉義縣,番路鄉公興村隆美地區(舊地名為瀨頭)私人茶園內,1988-12-01,,本站於 2013/4/27 進行儀器汰換，並於2013/8/1完成驗收。,,
599,C1M400,菜瓜坪,局屬自動站,369.0,120.576103,23.251928,嘉義縣,大埔鄉西興村,1988-12-01,,本站於 2013/4/18 進行儀器汰換，並於2013/8/1完成驗收。,,
600,C1M480,獨立山,局屬自動站,840.0,120.607797,23.537022,嘉義縣,竹崎鄉(獨立山三角點旁),1993-03-01,,原名為樟腦寮，於2015/7/15更名為獨立山。本站於2015/7/13起進行儀器汰換，並於2015/12/31完成驗收。,,
601,C1M600,頭凍,局屬自動站,986.0,120.603339,23.406364,嘉義縣,番路鄉阿里山公路23k處轉入興社產業道路盡頭,2002-08-01,,本站於2015/7/2起進行儀器汰換，並於2015/12/31完成驗收。,,
602,C1M610,石磐龍,局屬自動站,1083.0,120.663506,23.496606,嘉義縣,竹崎鄉光華村,2002-08-01,,本站於2015/6/11起進行儀器汰換，並於2015/12/31完成驗收。,,
603,C1M620,瑞里,局屬自動站,1252.0,120.675197,23.545133,嘉義縣,梅山鄉瑞里派出所旁小路至站址(公墓旁)車程約10分鐘,2002-08-01,,本站於2015/7/6起進行儀器汰換，並於2015/12/31完成驗收。,,
604,C1M640,十字,局屬自動站,1567.0,120.753683,23.492153,嘉義縣,阿里山鄉十字村16號（十字國小樓頂）,2019-01-01,,,,
605,C1M870,國三N285K,局屬自動站,121.0,120.505833,23.550319,嘉義縣,國道3號北向285K,2021-01-26,,,,
606,C1N001,沙崙,局屬自動站,24.0,120.309406,22.935472,臺南市,歸仁區沙崙里184號北沙崙農場,2013-08-01,,原(C1N000)站因儀器汰換，於2013/8/1更變為(C1N001)站。,C1N000,
607,C1O850,環湖,局屬自動站,44.0,120.418633,23.148617,臺南市,大內區頭社里10號(大內國小鳴頭分校內),1988-12-01,,本站於 2013/4/26 進行儀器汰換，並於2013/8/1完成驗收。,,
608,C1O870,大棟山,局屬自動站,1249.0,120.52226,23.31157,臺南市,白河區大棟山三角點,1988-12-01,,,,
609,C1O880,關山,局屬自動站,223.0,120.594092,23.173397,臺南市,南化區關山里西阿里關83號(瑞峰國小附近),1988-12-01,,本站於 2013/4/16 進行儀器汰換，並於2013/8/1完成驗收。,,
610,C1O921,楠西,局屬自動站,115.0,120.484083,23.183511,臺南市,楠西區中興路107號(楠西國民中學內),2013-04-18,,原(C1O920)站因儀器汰換，於2013/4/18更變為(C1O921)站。,C1O920,
611,C1O940,東山服務區,局屬自動站,55.0,120.398472,23.286016,臺南市,國道3號北向319.9K,2021-10-02,,,,
612,C1R110,口社,局屬自動站,110.0,120.645222,22.770111,屏東縣,三地門鄉口社村5鄰信義巷58-5號,1992-05-01,,本站於2013/9/3進行儀器汰換，並於2013/12/1完成驗收。,,
613,C1R120,上德文,局屬自動站,820.0,120.704442,22.763272,屏東縣,三地門鄉德文村口之公墓旁,1992-05-01,,本站於 2013/6/5 進行儀器汰換，並於2013/8/1完成驗收。,,
614,C1R250,力里,局屬自動站,92.0,120.629228,22.428117,屏東縣,春日鄉七佳村自強一路92號(力里國民小學內),1997-07-01,,本站因儀器汰換，自2013/8/27起暫停資料提供，並於2013/12/1完成驗收。,,
615,C1R290,石門山,局屬自動站,260.0,120.756597,22.112611,屏東縣,牡丹鄉石門古戰場(恆春事業區29林班地),1997-12-20,,本站於2019/09/08進行儀器汰換，於2019/11/28完成驗收。,,
616,C1R610,西大武山,局屬自動站,1828.0,120.7322,22.617719,屏東縣,泰武鄉北大武山步道2.6k,2013-12-01,,,,
617,C1R630,龍泉,局屬自動站,60.0,120.59091,22.66701,屏東縣,內埔鄉大新路109號（屏東縣新生國民小學）,2018-08-11,,,,
618,C1S670,摩天,局屬自動站,1580.0,121.027,23.199503,臺東縣,海端鄉(省道臺20線169K福德宮後方),1997-07-01,,本站於2019/4/17起進行儀器汰換，於2019/6/7完成驗收。,,
619,C1S800,華源,局屬自動站,80.0,121.02325,22.657883,臺東縣,太麻里鄉華源村,2004-06-01,,本站於2019/2/24起進行儀器汰換，於2019/6/7完成驗收。,,
620,C1S820,金峰,局屬自動站,177.0,120.933236,22.590969,臺東縣,金峰鄉嘉蘭村嘉蘭國小旁,2004-06-01,,本站於2019/3/6起進行儀器汰換，於2019/6/7完成驗收。,,
621,C1S850,豐南,局屬自動站,489.0,121.262389,23.122139,花蓮縣,富里鄉豐南村花82縣道盡頭叉路1k旁,2012-01-01,,本站於2019/4/20起進行儀器汰換，於2019/6/7完成驗收。,,
622,C1S860,利嘉,局屬自動站,516.0,121.050528,22.809417,臺東縣,卑南鄉利嘉林道6k附近梅子園,2012-01-01,,本站於2019/2/22起進行儀器汰換，於2019/6/7完成驗收。,,
623,C1S870,南美山,局屬自動站,222.0,121.382333,23.15025,臺東縣,成功鎮南美山產業道路盡頭柑橘園,2012-01-01,,本站於2019/3/28起進行儀器汰換，於2019/6/7完成驗收。,,
624,C1S880,壽卡,局屬自動站,474.0,120.858903,22.238911,臺東縣,達仁鄉(大武事業區第48林班內)電信轉播站後方,1997-07-01,,原(C1R310)站因縣市代碼不符，於2015/4/13重新編碼為(C1S880)站。本站於2019/09/17進行儀器汰換，於2019/11/28完成驗收。,C1R310,
625,C1SA50,利嘉林道,局屬自動站,1235.0,121.009389,22.82325,臺東縣,臺東縣卑南鄉利嘉林道17K處,2020-04-09,,,,
626,C1SA70,都蘭,局屬自動站,62.0,121.226881,22.87794,臺東縣,東河鄉都蘭村431號(都蘭國民小學教室頂樓),2019-06-07,,原(C1S630)站因移位，於2019/6/7更變為(C1SA70)站。,C1S630,
627,C1T800,洛韶,局屬自動站,1260.0,121.453956,24.204558,花蓮縣,秀林鄉富世村中橫公路洛韶11號旁,1996-01-01,,本站於2017/9/21起進行儀器汰換，於2017/12/1完成驗收。,,
628,C1T810,慈恩,局屬自動站,2049.0,121.388386,24.192044,花蓮縣,秀林鄉富世村關原路3號(救國團慈恩山莊),1996-01-01,,本站於2017/9/26 進行儀器汰換，於2017/12/1完成驗收。,,
629,C1T830,布洛灣,局屬自動站,675.0,121.57127,24.17184,花蓮縣,秀林鄉布洛灣地區(布洛灣遊客中心圓環之廣場旁邊),1996-01-01,,本站於2017/9/15起進行儀器汰換，於2017/12/1完成驗收。,,
630,C1T920,中興,局屬自動站,68.0,121.498653,23.769503,花蓮縣,壽豐鄉中興大橋橋頭旁,1996-01-01,,本站於2017/4/13起進行儀器汰換，於2017/12/1完成驗收。,,
631,C1T940,大觀,局屬自動站,539.0,121.373133,23.714206,花蓮縣,萬榮鄉(往臺16線過管制哨約12k處),1996-01-01,,本站於2017/5/9起進行儀器汰換，於2017/6/3完成驗收。,,
632,C1T950,太安,局屬自動站,1050.0,121.370128,23.666719,花蓮縣,萬榮鄉太田事業區128林班地(馬太鞍苗圃),1996-01-01,,本站於2017/4/17起進行儀器汰換，於2017/6/3完成驗收。,,
633,C1T970,大農,局屬自動站,183.0,121.413331,23.615233,花蓮縣,光復鄉花蓮糖廠之大農農場內(大農段691號),1996-01-01,,本站於2017/4/29起進行儀器汰換，於2017/6/3完成驗收。,,
634,C1T980,龍澗,局屬自動站,1306.0,121.411328,24.023289,花蓮縣,秀林鄉龍澗發電廠旁,1996-01-01,,本站於2017/8/8起進行儀器汰換，於2017/12/1完成驗收。,,
635,C1T990,高寮,局屬自動站,128.0,121.356808,23.394239,花蓮縣,玉里鎮觀音里15鄰9號(觀音國民小學校園內),1997-07-01,,本站於2017/8/16起進行儀器汰換，於2017/12/1完成驗收。,,
636,C1TA00,太魯閣,局屬自動站,94.0,121.6236,24.15773,花蓮縣,秀林鄉富世291號（太魯閣國家公園管理處內）,2018-08-06,,,,
637,C1U501,牛鬥,局屬自動站,280.0,121.573656,24.637836,宜蘭縣,大同鄉牛鬥地區,1996-01-01,,原(C1U500)站因儀器汰換，於1996/1/1更變為(C1U501)站。本站於2017/11/8進行儀器汰換，於2018/3/23完成驗收。,C1U500,
638,C1U670,寒溪,局屬自動站,105.0,121.71691,24.634,宜蘭縣,冬山鄉大進村大進七路51號(大進國民小學校園內),1996-01-01,,本站於2017/10/11進行儀器汰換，於2017/12/1完成驗收。,,
639,C1U840,東澳嶺,局屬自動站,750.0,121.8485,24.5378,宜蘭縣,南澳鄉,2011-07-01,,本站於2017/12/18進行儀器汰換，於2018/3/23完成驗收。,,
640,C1U850,觀音海岸,局屬自動站,665.0,121.77856,24.38319,宜蘭縣,南澳鄉之林務局羅東林區管理處和平事業區91林班,2011-07-01,,本站於2017/10/26進行儀器汰換，於2017/12/1完成驗收。,,
641,C1U920,思源,局屬自動站,2085.0,121.347214,24.393125,宜蘭縣,大同鄉與臺中市和平區交界之羅葉尾山步道邊(大甲溪事業區40林班內),2018-03-23,,,,
642,C1U930,粉鳥林,局屬自動站,5.0,121.842479,24.497088,宜蘭縣,宜蘭縣蘇澳鎮東澳里東澳路69號(粉鳥林安檢所樓頂),2022-03-14,,,,
643,C1V160,達卡努瓦,局屬自動站,1040.0,120.705319,23.279811,高雄市,那瑪夏區達卡努瓦里,1992-05-01,,原名為民生(達卡努瓦)，於2015/10/13更名為達卡努瓦。本站於2015/10/13起進行儀器汰換，並於2015/12/31完成驗收。,,
644,C1V170,排雲,局屬自動站,3690.0,120.954147,23.463619,高雄市,桃源區排雲山莊往南峰方向步行約6小時(登山口-8.5k排雲山莊-1.5k測站),1992-05-01,,本站於2015/11/3起進行儀器汰換，並於2015/12/31完成驗收。,,
645,C1V190,南天池,局屬自動站,2700.0,120.91176,23.27403,高雄市,桃源區長春祠旁之步道步行約50分鐘,1992-05-01,,本站於2015/10/26起進行儀器汰換，並於2015/12/31完成驗收。,,
646,C1V200,梅山,局屬自動站,870.0,120.823556,23.268447,高雄市,桃源區梅山里(梅山口遊客中心旁道路步行約10分鐘),1992-05-01,,本站於2013/2/27進行儀器汰換，並於2013/4/18完成驗收。,,
647,C1V220,小關山,局屬自動站,1781.0,120.813603,23.154217,高雄市,桃源區老濃溪事業區99林班地,1992-05-01,,本站於2013/2/26進行儀器汰換，並於2013/4/18完成驗收。,,
648,C1V231,高中,局屬自動站,731.0,120.716711,23.134911,高雄市,桃源區高中里,2013-04-18,,原(C1V230)站因儀器汰換，於2013/4/18更變為(C1V231)站。,C1V230,
649,C1V300,御油山,局屬自動站,1637.0,120.715364,23.001983,高雄市,桃源區農業委員會林業試驗所六龜分所鳳崗山苗圃觀測坪內,1992-05-01,,本站於2013/10/2進行儀器汰換，並於2013/12/1完成驗收。,,
650,C1V340,大津,局屬自動站,190.0,120.645986,22.888322,高雄市,六龜區大津里34號(龍興國小大津分校),1992-05-01,,本站於2013/8/10進行儀器汰換，並於2013/12/1完成驗收。,,
651,C1V390,尖山,局屬自動站,60.0,120.367789,22.813153,高雄市,燕巢區尖山里尖山巷11之1號(燕巢國小尖山分校),1992-05-01,,本站於2013/9/3進行儀器汰換，並於2013/12/1完成驗收。,,
652,C1V570,吉東,局屬自動站,82.0,120.5454,22.85422,高雄市,美濃區吉東里吉頂路19號(吉東國小),2013-08-01,,,,
653,C1V580,溪南(特生中心),局屬自動站,1656.0,120.788475,23.084972,高雄市,桃源區石山林道7k(特有生物研究保育中心中海拔試驗站),2013-04-18,,,,
654,C1V590,新發,局屬自動站,741.0,120.646064,23.057019,高雄市,六龜區旗山事業區61林班地,2013-12-01,,,,
655,C1V600,藤枝,局屬自動站,1561.0,120.757042,23.071961,高雄市,桃源區藤枝森林遊樂區遊客中心,2013-04-18,,,,
656,C1V780,多納林道,局屬自動站,1050.0,120.737917,22.888028,高雄市,茂林區多納林道9k(林試所六龜研究中心多納苗圃),2013-12-01,,,,
657,C1V830,國三S383K,局屬自動站,114.0,120.426475,22.781967,高雄市,燕巢區國道3號南向383K,2021-01-26,,,,
658,C1X040,東原,局屬自動站,232.0,120.463822,23.291597,臺南市,東山區高原里4鄰31號後方果園,1993-03-01,,本站於2015/6/30起進行儀器汰換，並於2015/12/31完成驗收。,,
659,C1Z030,紅葉,局屬自動站,218.0,121.338806,23.493119,花蓮縣,萬榮鄉紅葉村教堂附近,1997-07-01,,本站於2017/8/6起進行儀器汰換，於2017/12/1完成驗收。,,
660,C1Z040,立山,局屬自動站,434.0,121.327375,23.443356,花蓮縣,卓溪鄉立山村後山上,1997-07-01,,本站於2017/8/19起進行儀器汰換，於2017/12/1完成驗收。,,
661,C1Z110,三棧,局屬自動站,680.0,121.60501,24.11557,花蓮縣,秀林鄉雙露山,2017-12-01,,原(C1Z090)站因移位，於2017/12/1變更為(C1Z110)站。,C1Z090,
662,C1Z120,壽豐,局屬自動站,62.0,121.508081,23.870853,花蓮縣,壽豐鄉壽豐村壽山路37號(壽豐鄉文康中心),2017-06-03,,原(C1T890)站因移位，於2017/6/3變更為(C1Z120)站。,C1T890,
663,C1Z130,銅門,局屬自動站,187.0,121.492842,23.965694,花蓮縣,秀林鄉銅門村69號(銅門國小),2017-06-03,,原(C1T860)站因移位，於2017/6/3變更為(C1Z130)站。,C1T860,
664,C1Z140,荖溪,局屬自動站,950.0,121.45964,23.890575,花蓮縣,秀林鄉,2018-03-23,,,,
665,C1Z240,中平林道,局屬自動站,1163.0,121.26763,23.42115,花蓮縣,卓溪鄉中平林道(玉里林道)約15K鐵牌處步行上山高地,2017-12-01,,,,
